$GPGSV,3,3,11,06,09,308,,07,06,248,,01,04,215,*41
$GLGSV,3,1,10,66,71,070,,76,69,045,27,77,56,203,26,67,35,326,22*6B
$GLGSV,3,2,10,65,28,125,27,75,13,032,19,87,05,329,,83,04,325,*6F
$GLGSV,3,3,10,82,01,278,,78,01,210,*6F
$GNRMC,141720.000,A,3934.6301,N,10605.3106,W,0.14,96.12,070126,,,D*52
$GNGGA,141721.000,3934.6303,N,10605.3105,W,2,11,0.98,2769.1,M,-19.4,M,,*76
$GPGSV,3,1,11,03,63,219,33,04,60,322,18,16,54,137,30,26,51,070,34*7F
$GPGSV,3,2,11,31,40,052,31,48,36,218,25,09,27,304,15,28,12,060,15*7A
$GPGSV,3,3,11,06,09,308,,07,06,248,,01,04,215,*41
$GLGSV,3,1,10,66,71,070,17,76,69,045,27,77,56,203,26,67,35,326,21*6E
$GLGSV,3,2,10,65,28,125,26,75,13,032,18,87,05,329,,83,04,325,*6F
$GLGSV,3,3,10,82,01,278,,78,01,210,*6F
$GNRMC,141721.000,A,3934.6303,N,10605.3105,W,0.32,96.12,070126,,,D*56
$GNGGA,141722.000,3934.6304,N,10605.3104,W,2,11,0.98,2769.1,M,-19.4,M,,*73
$GPGSV,3,1,11,03,63,219,33,04,60,322,19,16,54,137,30,26,51,070,34*7E
$GPGSV,3,2,11,31,40,052,32,48,36,218,26,09,27,304,16,28,12,060,17*7B
$GPGSV,3,3,11,06,09,308,,07,06,248,,01,04,215,*41
$GLGSV,3,1,10,66,71,070,16,76,69,045,27,77,56,203,27,67,35,326,21*6E
$GLGSV,3,2,10,65,28,125,26,75,13,032,17,87,05,329,,83,04,325,*60
$GLGSV,3,3,10,82,01,278,,78,01,210,*6F
$GNRMC,141722.000,A,3934.6304,N,10605.3104,W,0.33,96.12,070126,,,D*52
$GNGGA,141723.000,3934.6305,N,10605.3105,W,2,13,0.88,2769.1,M,-19.4,M,,*71
$GPGSV,3,1,11,03,63,219,31,04,60,322,19,16,54,137,29,26,51,070,32*72
$GPGSV,3,2,11,31,40,052,31,48,36,218,26,09,27,304,15,28,12,060,17*7B
$GPGSV,3,3,11,06,09,308,,07,06,248,,01,04,215,*41
$GLGSV,3,1,10,66,71,070,17,76,69,045,27,77,56,203,27,67,35,326,21*6F
$GLGSV,3,2,10,65,28,125,26,75,13,032,16,87,05,329,,83,04,325,*61
$GLGSV,3,3,10,82,01,278,,78,01,210,*6F
$GNRMC,141723.000,A,3934.6305,N,10605.3105,W,0.34,96.12,070126,,,D*54
$GNGGA,141724.000,3934.6305,N,10605.3106,W,2,13,0.88,2769.1,M,-19.4,M,,*75
$GPGSV,3,1,11,03,63,219,31,04,60,322,20,16,54,137,30,26,51,070,33*71
$GPGSV,3,2,11,31,40,052,32,48,36,218,26,09,27,304,17,28,12,060,16*7B
$GPGSV,3,3,11,06,09,308,,07,06,248,,01,04,215,*41
$GLGSV,3,1,10,66,71,070,18,76,69,045,27,77,56,203,27,67,35,326,21*60
$GLGSV,3,2,10,65,28,125,26,75,12,032,16,87,05,329,,83,04,325,*60
$GLGSV,3,3,10,82,01,278,,78,01,210,*6F
$GNRMC,141724.000,A,3934.6305,N,10605.3106,W,0.22,96.12,070126,,,D*57
$GNGGA,141725.000,3934.6304,N,10605.3105,W,2,13,0.88,2769.1,M,-19.4,M,,*76
$GPGSV,3,1,11,03,63,219,31,04,60,322,20,16,54,137,30,26,51,070,33*71
$GPGSV,3,2,11,31,40,052,32,48,36,218,26,09,27,304,17,28,12,060,16*7B
$GPGSV,3,3,11,06,09,308,,07,06,248,,01,04,215,*41
$GLGSV,3,1,10,66,71,070,17,76,68,044,27,77,56,203,27,67,35,326,21*6F
$GLGSV,3,2,10,65,28,125,26,75,12,032,16,87,05,329,,83,04,325,*60
$GLGSV,3,3,10,82,01,278,,78,01,210,*6F
$GNRMC,141725.000,A,3934.6304,N,10605.3105,W,0.36,96.12,070126,,,D*51
$GNGGA,141726.000,3934.6302,N,10605.3107,W,2,13,0.88,2769.0,M,-19.4,M,,*70
$GPGSV,3,1,11,03,63,219,33,04,60,322,21,16,54,137,31,26,51,070,34*74
$GPGSV,3,2,11,31,40,052,33,48,36,218,27,09,27,304,18,28,12,060,17*75
$GPGSV,3,3,11,06,09,308,,07,06,248,,01,04,215,*41
$GLGSV,3,1,10,66,71,070,17,76,68,044,28,77,57,204,27,67,35,326,23*64
$GLGSV,3,2,10,65,28,125,26,75,12,032,17,87,05,329,,83,04,325,*61
$GLGSV,3,3,10,82,01,278,,78,01,210,*6F
$GNRMC,141726.000,A,3934.6302,N,10605.3107,W,0.23,96.12,070126,,,D*52
$GNGGA,141727.000,3934.6300,N,10605.3109,W,2,13,0.88,2769.0,M,-19.4,M,,*7D
$GPGSV,3,1,11,03,63,219,34,04,60,322,22,16,54,137,32,26,51,070,35*72
$GPGSV,3,2,11,31,40,052,34,48,36,218,28,09,27,304,25,28,12,060,18*7C
$GPGSV,3,3,11,06,09,308,,07,06,248,,01,04,215,*41
$GLGSV,3,1,10,66,71,070,17,76,68,044,27,77,57,204,27,67,35,326,24*6C
$GLGSV,3,2,10,65,28,125,26,75,12,032,18,87,05,329,,83,04,325,*6E
$GLGSV,3,3,10,82,01,278,,78,01,210,*6F
$GNRMC,141727.000,A,3934.6300,N,10605.3109,W,0.13,96.12,070126,,,D*5C
$GNGGA,141728.000,3934.6297,N,10605.3108,W,2,13,0.88,2769.0,M,-19.4,M,,*7C
$GPGSV,3,1,11,03,63,219,35,04,60,322,25,16,54,137,33,26,51,070,36*76
$GPGSV,3,2,11,31,40,052,35,48,36,218,29,09,27,304,24,28,12,060,19*7C
$GPGSV,3,3,11,06,09,308,,07,06,248,,01,04,215,*41
$GLGSV,3,1,10,66,71,070,18,76,68,044,27,77,57,204,28,67,35,326,26*6E
$GLGSV,3,2,10,65,28,125,27,75,12,032,20,87,05,329,,83,04,325,*64
$GLGSV,3,3,10,82,01,278,,78,01,210,*6F
$GNRMC,141728.000,A,3934.6297,N,10605.3108,W,0.25,96.12,070126,,,D*58
$GNGGA,141729.000,3934.6296,N,10605.3109,W,2,13,0.88,2769.0,M,-19.4,M,,*7D
$GPGSV,3,1,11,03,63,219,34,04,60,322,26,16,54,137,25,26,51,070,35*70
$GPGSV,3,2,11,31,40,052,34,48,36,218,29,09,27,304,24,28,12,060,19*7D
$GPGSV,3,3,11,06,09,308,,07,06,248,,01,04,215,*41
$GLGSV,3,1,10,66,71,070,19,76,68,044,26,77,57,204,28,67,35,326,25*6D
$GLGSV,3,2,10,65,28,125,18,75,12,032,20,87,05,329,,83,04,325,*68
$GLGSV,3,3,10,82,01,278,,78,01,210,*6F
$GNRMC,141729.000,A,3934.6296,N,10605.3109,W,0.39,96.12,070126,,,D*54
$GNGGA,141730.000,3934.6296,N,10605.3111,W,2,13,0.88,2769.0,M,-19.4,M,,*7C
$GPGSV,3,1,11,03,63,219,34,04,60,322,26,16,54,137,34,26,51,070,35*70
$GPGSV,3,2,11,31,40,052,34,48,36,218,29,09,27,304,23,28,12,060,20*70
$GPGSV,3,3,11,06,09,308,,07,06,248,,01,04,215,*41
$GLGSV,3,1,10,66,71,070,20,76,68,044,25,77,57,204,29,67,35,326,26*66
$GLGSV,3,2,10,65,28,125,25,75,12,032,20,87,05,329,,83,04,325,*66
$GLGSV,3,3,10,82,01,278,,78,01,210,*6F
$GNRMC,141730.000,A,3934.6296,N,10605.3111,W,0.13,96.12,070126,,,D*5D
$GNGGA,141731.000,3934.6296,N,10605.3112,W,2,13,0.88,2769.0,M,-19.4,M,,*7E
$GPGSV,3,1,11,03,63,219,35,04,60,322,25,16,54,137,34,26,51,070,36*71
$GPGSV,3,2,11,31,40,052,35,48,36,218,30,09,27,304,22,28,12,060,21*79
$GPGSV,3,3,11,06,09,308,,07,06,248,,01,04,215,*41
$GLGSV,3,1,09,66,71,070,20,76,68,044,25,77,57,204,30,67,35,326,27*67
$GLGSV,3,2,09,65,28,125,26,75,12,032,21,87,05,329,,83,04,325,*6C
$GLGSV,3,3,09,78,01,210,*51
$GNRMC,141731.000,A,3934.6296,N,10605.3112,W,0.22,96.12,070126,,,D*5D
$GNGGA,141732.000,3934.6296,N,10605.3111,W,2,13,0.88,2769.0,M,-19.4,M,,*7E
$GPGSV,3,1,11,03,63,219,36,04,60,322,25,16,54,137,34,26,51,070,36*72
$GPGSV,3,2,11,31,40,052,35,48,36,218,30,09,27,304,21,28,12,060,21*7A
$GPGSV,3,3,11,06,09,308,,07,06,248,,01,04,215,*41
$GLGSV,3,1,09,66,71,070,21,76,68,044,25,77,57,204,30,67,35,326,28*69
$GLGSV,3,2,09,65,28,125,26,75,12,032,22,87,05,329,,83,04,324,*6E
$GLGSV,3,3,09,78,01,210,*51
$GNRMC,141732.000,A,3934.6296,N,10605.3111,W,0.24,96.12,070126,,,D*5B
$GNGGA,141733.000,3934.6295,N,10605.3110,W,2,13,0.88,2769.0,M,-19.4,M,,*7D
$GPGSV,3,1,11,03,63,219,37,04,60,322,25,16,54,137,34,26,51,070,37*72
$GPGSV,3,2,11,31,40,052,36,48,36,218,30,09,27,304,21,28,12,060,22*7A
$GPGSV,3,3,11,06,09,308,,07,06,248,,01,04,215,*41
$GLGSV,3,1,09,66,71,070,21,76,68,044,25,77,57,204,30,67,35,326,29*68
$GLGSV,3,2,09,65,28,125,27,75,12,032,23,87,05,329,,83,04,324,*6E
$GLGSV,3,3,09,78,01,210,*51
$GNRMC,141733.000,A,3934.6295,N,10605.3110,W,0.28,96.12,070126,,,D*54
$GNGGA,141734.000,3934.6295,N,10605.3109,W,2,13,0.88,2769.0,M,-19.4,M,,*72
$GPGSV,3,1,11,03,63,219,36,04,60,322,25,16,54,137,34,26,51,070,36*72
$GPGSV,3,2,11,31,40,052,35,48,36,218,29,09,27,304,20,28,12,060,21*73
$GPGSV,3,3,11,06,09,308,,07,06,248,,01,04,215,*41
$GLGSV,3,1,09,66,71,070,24,76,68,044,24,77,57,204,30,67,35,326,28*6D
$GLGSV,3,2,09,65,28,125,27,75,12,032,23,87,05,329,,83,04,324,*6E
$GLGSV,3,3,09,78,01,210,*51
$GNRMC,141734.000,A,3934.6295,N,10605.3109,W,0.24,96.12,070126,,,D*57
$GNGGA,141735.000,3934.6295,N,10605.3110,W,2,13,0.88,2768.9,M,-19.4,M,,*73
$GPGSV,3,1,11,03,63,219,37,04,60,322,27,16,54,137,35,26,51,070,41*70
$GPGSV,3,2,11,31,40,052,36,48,36,218,30,09,27,304,21,28,12,060,22*7A
$GPGSV,3,3,11,06,09,308,,07,06,248,,01,04,215,*41
$GLGSV,3,1,09,66,71,070,25,76,68,044,24,77,57,204,31,67,35,326,27*62
$GLGSV,3,2,09,65,28,125,26,75,12,032,24,87,05,329,,83,04,324,*68
$GLGSV,3,3,09,78,01,210,*51
$GNRMC,141735.000,A,3934.6295,N,10605.3110,W,0.32,96.12,070126,,,D*59
$GNGGA,141736.000,3934.6293,N,10605.3108,W,2,13,0.88,2768.9,M,-19.4,M,,*7F
$GPGSV,3,1,11,03,63,219,39,04,60,322,28,16,54,137,36,26,51,070,41*72
$GPGSV,3,2,11,31,40,052,37,48,36,218,31,09,27,304,22,28,12,060,23*78
$GPGSV,3,3,11,06,09,308,,07,06,248,,01,04,215,*41
$GLGSV,3,1,09,66,71,070,23,76,68,044,26,77,57,204,32,67,35,326,29*6B
$GLGSV,3,2,09,65,28,125,28,75,12,032,25,87,06,330,,83,04,324,*6C
$GLGSV,3,3,09,78,01,210,*51
$GNRMC,141736.000,A,3934.6293,N,10605.3108,W,0.28,96.12,070126,,,D*5E
$GNGGA,141737.000,3934.6292,N,10605.3109,W,2,13,0.88,2768.8,M,-19.4,M,,*7F
$GPGSV,3,1,11,03,63,219,40,04,60,322,28,16,54,137,36,26,51,070,40*7D
$GPGSV,3,2,11,31,40,052,38,48,36,218,31,09,27,304,22,28,12,060,23*77
$GPGSV,3,3,11,06,09,308,,07,06,248,,01,04,215,*41
$GLGSV,3,1,09,66,71,070,23,76,68,044,28,77,57,204,32,67,35,326,30*6D
$GLGSV,3,2,09,65,28,125,30,75,12,032,25,87,06,330,,83,04,324,*65
$GLGSV,3,3,09,78,01,210,*51
$GNRMC,141737.000,A,3934.6292,N,10605.3109,W,0.25,96.12,070126,,,D*52
$GNGGA,141738.000,3934.6292,N,10605.3110,W,2,13,0.88,2768.8,M,-19.4,M,,*78
$GPGSV,3,1,11,03,63,219,40,04,60,322,27,16,54,137,36,26,51,070,40*72
$GPGSV,3,2,11,31,40,052,38,48,36,218,31,09,27,304,22,28,12,060,23*77
$GPGSV,3,3,11,06,09,308,,07,06,248,,01,04,215,*41
$GLGSV,3,1,09,66,71,070,19,76,68,044,28,77,57,204,32,67,35,326,30*64
$GLGSV,3,2,09,65,28,125,30,75,12,032,25,87,06,330,,83,04,324,*65
$GLGSV,3,3,09,78,01,210,*51
$GNRMC,141738.000,A,3934.6292,N,10605.3110,W,0.08,96.12,070126,,,D*5A
$GNGGA,141739.000,3934.6291,N,10605.3110,W,2,13,0.88,2768.8,M,-19.4,M,,*7A
$GPGSV,3,1,11,03,63,219,40,04,60,322,27,16,54,137,36,26,51,070,40*72
$GPGSV,3,2,11,31,40,052,38,48,36,218,31,09,27,304,22,28,12,060,22*76
$GPGSV,3,3,11,06,09,308,,07,06,248,,01,04,215,*41
$GLGSV,3,1,09,66,71,070,17,76,68,044,28,77,57,204,32,67,35,326,29*62
$GLGSV,3,2,09,65,28,125,29,75,12,032,24,87,06,330,,83,04,324,*6C
$GLGSV,3,3,09,78,01,210,*51
$GNRMC,141739.000,A,3934.6291,N,10605.3110,W,0.04,96.12,070126,,,D*54
$GNGGA,141740.000,3934.6291,N,10605.3110,W,2,13,0.88,2768.8,M,-19.4,M,,*74
$GPGSV,3,1,11,03,63,219,40,04,60,322,27,16,54,137,35,26,51,070,39*7F
$GPGSV,3,2,11,31,40,052,37,48,36,218,31,09,27,304,22,28,12,060,22*79
$GPGSV,3,3,11,06,09,308,,07,06,248,,01,04,215,*41
$GLGSV,3,1,09,66,71,070,19,76,68,044,29,77,57,204,31,67,35,326,28*6F
$GLGSV,3,2,09,65,28,125,29,75,12,032,24,87,06,330,,83,04,324,*6C
$GLGSV,3,3,09,78,01,210,*51
$GNRMC,141740.000,A,3934.6291,N,10605.3110,W,0.52,96.12,070126,,,D*59
$GNGGA,141741.000,3934.6291,N,10605.3109,W,2,13,0.88,2768.8,M,-19.4,M,,*7D
$GPGSV,3,1,11,03,63,219,41,04,60,322,19,16,54,137,25,26,51,070,29*73
$GPGSV,3,2,11,31,40,052,37,48,36,218,31,09,27,304,21,28,12,060,23*7B
$GPGSV,3,3,11,06,09,308,,07,06,248,,01,04,215,*41
$GLGSV,3,1,09,66,71,070,20,76,68,044,29,77,57,204,32,67,35,326,29*67
$GLGSV,3,2,09,65,28,125,27,75,12,032,23,87,06,330,,83,04,324,*65
$GLGSV,3,3,09,78,01,210,*51
$GNRMC,141741.000,A,3934.6291,N,10605.3109,W,0.35,96.12,070126,,,D*51
$GNGGA,141742.000,3934.6291,N,10605.3109,W,2,13,0.88,2768.8,M,-19.4,M,,*7E
$GPGSV,3,1,11,03,63,219,40,04,60,322,20,16,54,137,27,26,51,070,30*72
$GPGSV,3,2,11,31,40,052,37,48,36,218,32,09,27,304,29,28,12,060,25*76
$GPGSV,3,3,11,06,09,308,,07,06,248,,01,04,215,*41
$GLGSV,3,1,09,66,71,070,27,76,68,044,27,77,57,204,32,67,35,326,28*6F
$GLGSV,3,2,09,65,28,125,28,75,12,032,22,87,06,330,,83,04,324,*6B
$GLGSV,3,3,09,78,01,210,*51
$GNRMC,141742.000,A,3934.6291,N,10605.3109,W,0.29,96.12,070126,,,D*5F
$GNGGA,141743.000,3934.6291,N,10605.3108,W,2,13,0.88,2768.8,M,-19.4,M,,*7E
$GPGSV,3,1,11,03,63,219,41,04,60,322,30,16,54,137,20,26,51,070,32*77
$GPGSV,3,2,11,31,40,052,38,48,36,218,32,09,27,304,20,28,12,060,25*70
$GPGSV,3,3,11,06,09,308,,07,06,248,,01,04,215,*41
$GLGSV,3,1,09,66,71,070,27,76,68,044,28,77,57,204,33,67,35,326,39*61
$GLGSV,3,2,09,65,28,125,35,75,12,032,29,87,06,330,,83,04,324,*6C
$GLGSV,3,3,09,78,01,210,*51
$GNRMC,141743.000,A,3934.6291,N,10605.3108,W,0.19,96.12,070126,,,D*5C
$GNGGA,141744.000,3934.6290,N,10605.3108,W,2,13,0.88,2768.8,M,-19.4,M,,*78
$GPGSV,3,1,11,03,63,219,42,04,60,322,29,16,54,137,21,26,51,070,33*7C
$GPGSV,3,2,11,31,40,052,39,48,36,218,31,09,27,304,19,28,12,060,25*78
$GPGSV,3,3,11,06,09,308,,07,06,248,,01,04,215,*41
$GLGSV,3,1,09,66,71,070,26,76,68,044,30,77,57,204,33,67,35,326,38*68
$GLGSV,3,2,09,65,28,125,35,75,12,032,28,87,06,330,,83,04,324,*6D
$GLGSV,3,3,09,78,01,210,*51
$GNRMC,141744.000,A,3934.6290,N,10605.3108,W,0.41,96.12,070126,,,D*57
$GNGGA,141745.000,3934.6290,N,10605.3109,W,2,13,0.88,2768.9,M,-19.4,M,,*79
$GPGSV,3,1,11,03,63,219,42,04,60,322,27,16,54,137,20,26,51,070,33*73
$GPGSV,3,2,11,31,40,052,39,48,36,218,30,09,27,304,18,28,12,060,24*79
$GPGSV,3,3,11,06,09,308,,07,06,248,,01,04,215,*41
$GLGSV,3,1,09,66,71,070,25,76,68,044,31,77,57,204,34,67,35,326,38*6D
$GLGSV,3,2,09,65,28,125,35,75,12,032,28,87,06,330,,83,04,324,*6D
$GLGSV,3,3,09,78,01,210,*51
$GNRMC,141745.000,A,3934.6290,N,10605.3109,W,0.16,96.12,070126,,,D*55
$GNGGA,141746.000,3934.6291,N,10605.3109,W,2,13,0.88,2768.8,M,-19.4,M,,*7A
$GPGSV,3,1,11,03,63,219,42,04,60,322,24,16,54,137,20,26,51,070,33*70
$GPGSV,3,2,11,31,40,052,39,48,36,218,29,09,27,304,17,28,12,060,23*79
$GPGSV,3,3,11,06,09,308,,07,06,248,,01,04,215,*41
$GLGSV,3,1,09,66,71,070,25,76,68,044,32,77,57,204,35,67,35,326,38*6F
$GLGSV,3,2,09,65,28,125,35,75,12,032,28,87,06,330,,83,04,324,*6D
$GLGSV,3,3,09,78,01,210,*51
$GNRMC,141746.000,A,3934.6291,N,10605.3109,W,0.27,96.12,070126,,,D*55
$GNGGA,141747.000,3934.6291,N,10605.3109,W,2,13,0.88,2768.8,M,-19.4,M,,*7B
$GPGSV,3,1,11,03,63,219,42,04,60,322,24,16,54,137,19,26,51,070,33*7A
$GPGSV,3,2,11,31,40,052,39,48,36,218,29,09,27,304,17,28,12,060,22*78
$GPGSV,3,3,11,06,09,308,,07,06,248,,01,04,215,*41
$GLGSV,3,1,09,66,71,070,25,76,68,044,33,77,57,204,35,67,35,326,38*6E
$GLGSV,3,2,09,65,28,125,35,75,12,032,29,87,06,330,,83,04,324,*6C
$GLGSV,3,3,09,78,01,210,*51
$GNRMC,141747.000,A,3934.6291,N,10605.3109,W,0.14,96.12,070126,,,D*54
$GNGGA,141748.000,3934.6290,N,10605.3109,W,2,13,0.88,2768.8,M,-19.4,M,,*75
$GPGSV,3,1,11,03,63,219,42,04,60,322,23,16,54,137,19,26,51,070,34*7A
$GPGSV,3,2,11,31,40,052,39,48,36,218,30,09,27,304,17,28,12,060,24*76
$GPGSV,3,3,11,06,09,308,,07,06,248,,01,04,215,*41
$GLGSV,3,1,09,66,71,070,26,76,68,044,33,77,57,204,35,67,35,326,37*62
$GLGSV,3,2,09,65,28,125,35,75,12,032,29,87,06,330,,83,04,324,*6C
$GLGSV,3,3,09,78,01,210,*51
$GNRMC,141748.000,A,3934.6290,N,10605.3109,W,0.38,96.12,070126,,,D*54
$GNGGA,141749.000,3934.6291,N,10605.3109,W,2,13,0.88,2768.8,M,-19.4,M,,*75
$GPGSV,3,1,11,03,63,219,42,04,60,322,23,16,54,137,18,26,51,070,34*7B
$GPGSV,3,2,11,31,40,052,39,48,36,218,30,09,27,304,16,28,12,060,24*77
$GPGSV,3,3,11,06,09,308,,07,06,248,,01,04,215,*41
$GLGSV,3,1,09,66,71,070,27,76,68,044,33,77,57,204,35,67,35,326,36*62
$GLGSV,3,2,09,65,28,125,33,75,12,032,29,87,06,330,,83,04,324,*6A
$GLGSV,3,3,09,78,01,210,*51
$GNRMC,141749.000,A,3934.6291,N,10605.3109,W,0.24,96.12,070126,,,D*59
$GNGGA,141750.000,3934.6291,N,10605.3109,W,2,13,0.88,2768.8,M,-19.4,M,,*7D
$GPGSV,3,1,11,03,63,219,42,04,60,322,24,16,54,137,18,26,51,070,35*7D
$GPGSV,3,2,11,31,40,052,40,48,36,218,30,09,27,304,23,28,12,060,24*7F
$GPGSV,3,3,11,06,09,308,,07,06,248,,01,04,215,*41
$GLGSV,3,1,09,66,71,070,28,76,68,044,32,77,57,204,35,67,35,326,36*6C
$GLGSV,3,2,09,65,28,125,32,75,12,032,30,87,06,330,,83,04,324,*63
$GLGSV,3,3,09,78,01,210,*51
$GNRMC,141750.000,A,3934.6291,N,10605.3109,W,0.10,96.12,070126,,,D*56
$GNGGA,141751.000,3934.6291,N,10605.3109,W,2,13,0.88,2768.8,M,-19.4,M,,*7C
$GPGSV,3,1,11,03,63,219,41,04,60,322,24,16,54,137,18,26,51,070,35*7E
$GPGSV,3,2,11,31,40,052,40,48,36,218,30,09,27,304,22,28,12,060,23*79
$GPGSV,3,3,11,06,09,308,,07,06,248,,01,04,215,*41
$GLGSV,3,1,09,66,71,070,27,76,68,044,19,77,57,204,34,67,35,326,35*68
$GLGSV,3,2,09,65,28,125,30,75,12,032,30,87,06,330,,83,04,324,*61
$GLGSV,3,3,09,78,01,210,*51
$GNRMC,141751.000,A,3934.6291,N,10605.3109,W,0.25,96.12,070126,,,D*51
$GNGGA,141752.000,3934.6291,N,10605.3109,W,2,13,0.88,2768.9,M,-19.4,M,,*7E
$GPGSV,3,1,11,03,63,219,41,04,60,322,24,16,54,137,19,26,51,070,37*7D
$GPGSV,3,2,11,31,40,052,40,48,36,218,37,09,27,304,23,28,12,060,22*7E
$GPGSV,3,3,11,06,09,308,,07,06,248,,01,04,215,*41
$GLGSV,3,1,09,66,71,070,27,76,68,044,37,77,57,204,26,67,35,326,27*64
$GLGSV,3,2,09,65,28,125,30,75,12,032,28,87,06,330,,83,04,324,*68
$GLGSV,3,3,09,78,01,210,*51
$GNRMC,141752.000,A,3934.6291,N,10605.3109,W,0.69,318.10,070126,,,D*6D
$GNGGA,141753.000,3934.6293,N,10605.3110,W,2,13,0.88,2768.9,M,-19.4,M,,*75
$GPGSV,3,1,11,03,63,219,40,04,60,322,23,16,54,137,29,26,51,070,26*78
$GPGSV,3,2,11,31,40,052,29,48,36,218,38,09,27,304,22,28,12,060,21*7C
$GPGSV,3,3,11,06,09,308,,07,06,248,,01,04,215,*41
$GLGSV,3,1,09,66,71,070,26,76,68,044,28,77,57,204,27,67,35,326,34*68
$GLGSV,3,2,09,65,28,125,29,75,12,032,29,87,06,330,,83,04,324,*61
$GLGSV,3,3,09,78,01,210,*51
$GNRMC,141753.000,A,3934.6293,N,10605.3110,W,0.68,319.23,070126,,,D*66
$GNGGA,141754.000,3934.6293,N,10605.3112,W,2,13,0.88,2768.9,M,-19.4,M,,*70
$GPGSV,3,1,11,03,63,219,22,04,60,322,30,16,54,137,28,26,51,070,27*7E
$GPGSV,3,2,11,31,40,052,31,48,36,218,37,09,27,304,33,28,12,060,20*7B
$GPGSV,3,3,11,06,09,308,,07,06,248,,01,04,215,*41
$GLGSV,3,1,09,66,71,070,27,76,68,044,27,77,57,204,28,67,35,326,36*6B
$GLGSV,3,2,09,65,28,125,22,75,12,032,28,87,06,330,,83,04,324,*6B
$GLGSV,3,3,09,78,01,210,*51
$GNRMC,141754.000,A,3934.6293,N,10605.3112,W,0.63,303.10,070126,,,D*63
$GNGGA,141755.000,3934.6296,N,10605.3114,W,2,13,0.88,2768.9,M,-19.4,M,,*72
$GPGSV,3,1,11,03,63,219,30,04,60,322,37,16,54,137,39,26,51,070,39*75
$GPGSV,3,2,11,31,40,052,39,48,36,218,27,09,27,304,33,28,12,060,20*72
$GPGSV,3,3,11,06,09,308,,07,06,248,,01,04,215,*41
$GLGSV,3,1,09,66,71,070,37,76,68,044,36,77,57,204,28,67,35,326,37*6B
$GLGSV,3,2,09,65,28,125,37,75,12,032,29,87,06,330,,83,04,324,*6E
$GLGSV,3,3,09,78,01,210,*51
$GNRMC,141755.000,A,3934.6296,N,10605.3114,W,0.78,328.75,070126,,,D*61
$GNGGA,141756.000,3934.6298,N,10605.3115,W,2,13,0.88,2769.0,M,-19.4,M,,*76
$GPGSV,3,1,11,03,63,219,31,04,60,322,37,16,54,137,23,26,51,070,38*7E
$GPGSV,3,2,11,31,40,052,40,48,36,218,28,09,27,304,33,28,12,060,34*76
$GPGSV,3,3,11,06,09,308,,07,06,248,,01,04,215,*41
$GLGSV,3,1,09,66,71,070,35,76,68,044,37,77,57,204,35,67,35,326,28*6A
$GLGSV,3,2,09,65,28,125,36,75,12,032,37,87,06,330,,83,04,324,*60
$GLGSV,3,3,09,78,01,210,*51
$GNRMC,141756.000,A,3934.6298,N,10605.3115,W,0.81,284.21,070126,,,D*6D
$GNGGA,141757.000,3934.6300,N,10605.3118,W,2,13,0.88,2768.9,M,-19.4,M,,*72
$GPGSV,3,1,11,03,63,219,38,04,60,322,36,16,54,137,24,26,51,070,39*70
$GPGSV,3,2,11,31,40,052,33,48,36,218,29,09,27,304,31,28,12,060,27*73
$GPGSV,3,3,11,06,09,308,,07,06,248,,01,04,215,*41
$GLGSV,3,1,09,66,71,070,35,76,68,044,37,77,57,204,36,67,35,326,36*66
$GLGSV,3,2,09,65,28,125,35,75,12,032,35,87,06,330,,83,04,324,*61
$GLGSV,3,3,09,78,01,210,*51
$GNRMC,141757.000,A,3934.6300,N,10605.3118,W,0.94,314.57,070126,,,D*6C
$GNGGA,141758.000,3934.6301,N,10605.3116,W,2,13,0.88,2768.8,M,-19.4,M,,*73
$GPGSV,3,1,11,03,63,219,38,04,60,322,36,16,54,137,35,26,51,070,39*70
$GPGSV,3,2,11,31,40,052,34,48,36,218,31,09,27,304,31,28,12,060,26*7C
$GPGSV,3,3,11,06,09,308,,07,06,248,,01,04,215,*41
$GLGSV,3,1,09,66,71,070,34,76,68,044,36,77,57,204,34,67,35,326,36*64
$GLGSV,3,2,09,65,28,125,35,75,12,032,34,87,06,330,,83,04,324,*60
$GLGSV,3,3,09,78,01,210,*51
$GNRMC,141758.000,A,3934.6301,N,10605.3116,W,0.54,314.57,070126,,,D*60
$GNGGA,141759.000,3934.6300,N,10605.3113,W,2,13,0.88,2768.8,M,-19.4,M,,*76
$GPGSV,3,1,11,03,63,219,40,04,60,322,28,16,54,137,36,26,51,070,38*72
$GPGSV,3,2,11,31,40,052,36,48,36,218,30,09,27,304,30,28,12,060,27*7F
$GPGSV,3,3,11,06,09,308,,07,06,248,,01,04,215,*41
$GLGSV,3,1,09,66,71,070,35,76,68,044,36,77,57,204,33,67,35,326,23*66
$GLGSV,3,2,09,65,28,125,33,75,12,032,33,87,06,330,,83,04,324,*61
$GLGSV,3,3,09,78,01,210,*51
$GNRMC,141759.000,A,3934.6300,N,10605.3113,W,0.52,314.57,070126,,,D*63
$GNGGA,141800.000,3934.6301,N,10605.3111,W,2,13,0.88,2768.7,M,-19.4,M,,*79
$GPGSV,3,1,11,03,63,219,41,04,60,322,27,16,54,137,36,26,51,070,38*7C
$GPGSV,3,2,11,31,40,052,37,48,36,218,39,09,27,304,23,28,12,060,28*7A
$GPGSV,3,3,11,06,09,308,,07,06,248,,01,04,215,*41
$GLGSV,3,1,09,66,71,070,33,76,68,044,34,77,57,204,32,67,35,326,24*64
$GLGSV,3,2,09,65,28,125,25,75,12,032,25,87,06,330,,83,04,324,*61
$GLGSV,3,3,09,78,01,210,*51
$GNRMC,141800.000,A,3934.6301,N,10605.3111,W,0.99,108.27,070126,,,D*6C
$GNGGA,141801.000,3934.6298,N,10605.3108,W,2,13,0.88,2768.6,M,-19.4,M,,*70
$GPGSV,3,1,11,03,63,219,42,04,60,322,28,16,54,137,37,26,51,070,39*70
$GPGSV,3,2,11,31,40,052,38,48,36,218,40,09,27,304,22,28,12,060,28*7A
$GPGSV,3,3,11,06,09,308,,07,06,248,,01,04,215,*41
$GLGSV,3,1,09,66,71,070,32,76,68,044,34,77,57,204,31,67,35,326,22*60
$GLGSV,3,2,09,65,28,125,26,75,12,032,32,87,06,330,,83,04,324,*64
$GLGSV,3,3,09,78,01,210,*51
$GNRMC,141801.000,A,3934.6298,N,10605.3108,W,1.30,140.01,070126,,,D*6E
$GNGGA,141802.000,3934.6296,N,10605.3106,W,2,13,0.88,2768.5,M,-19.4,M,,*70
$GPGSV,3,1,11,03,63,219,29,04,60,322,36,16,54,137,39,26,51,070,38*7D
$GPGSV,3,2,11,31,40,052,39,48,36,218,39,09,27,304,23,28,12,060,30*7D
$GPGSV,3,3,11,06,09,308,,07,06,248,,01,04,215,*41
$GLGSV,3,1,09,66,71,070,32,76,68,044,33,77,57,204,32,67,35,326,22*64
$GLGSV,3,2,09,65,28,125,26,75,12,032,30,87,06,330,,83,04,324,*66
$GLGSV,3,3,09,78,01,210,*51
$GNRMC,141802.000,A,3934.6296,N,10605.3106,W,1.11,149.42,070126,,,D*60
$GNGGA,141803.000,3934.6295,N,10605.3107,W,2,13,0.88,2768.4,M,-19.4,M,,*72
$GPGSV,3,1,11,03,63,219,28,04,60,322,35,16,54,137,39,26,51,070,38*7F
$GPGSV,3,2,11,31,40,052,38,48,36,218,38,09,27,304,37,28,12,060,28*71
$GPGSV,3,3,11,06,09,308,,07,06,248,,01,04,215,*41
$GLGSV,3,1,09,66,71,070,33,76,68,044,33,77,57,204,33,67,35,326,29*6F
$GLGSV,3,2,09,65,28,125,25,75,12,032,29,87,06,330,,83,04,324,*6D
$GLGSV,3,3,09,78,01,210,*51
$GNRMC,141803.000,A,3934.6295,N,10605.3107,W,0.96,158.75,070126,,,D*69
$GNGGA,141804.000,3934.6294,N,10605.3105,W,2,13,0.88,2768.4,M,-19.4,M,,*76
$GPGSV,3,1,11,03,63,219,38,04,60,322,33,16,54,137,39,26,51,070,37*77
$GPGSV,3,2,11,31,40,052,36,48,36,218,36,09,27,304,30,28,12,060,26*78
$GPGSV,3,3,11,06,09,308,,07,06,248,,01,04,215,*41
$GLGSV,3,1,09,66,71,070,35,76,68,044,40,77,57,204,34,67,35,326,39*6B
$GLGSV,3,2,09,65,28,125,33,75,12,032,31,87,06,330,,83,04,324,*63
$GLGSV,3,3,09,78,01,210,*51
$GNRMC,141804.000,A,3934.6294,N,10605.3105,W,0.07,158.75,070126,,,D*65
$GNGGA,141805.000,3934.6293,N,10605.3105,W,2,13,0.88,2768.3,M,-19.4,M,,*77
$GPGSV,3,1,11,03,63,219,38,04,60,322,31,16,54,137,39,26,51,070,36*74
$GPGSV,3,2,11,31,40,052,36,48,36,218,36,09,27,304,21,28,12,060,24*7A
$GPGSV,3,3,11,06,09,308,,07,06,248,,01,04,215,*41
$GLGSV,3,1,09,66,71,070,36,76,68,044,33,77,57,204,35,67,35,326,39*6D
$GLGSV,3,2,09,65,28,125,32,75,12,032,40,87,06,330,,83,04,324,*64
$GLGSV,3,3,09,78,01,210,*51
$GNRMC,141805.000,A,3934.6293,N,10605.3105,W,0.15,158.75,070126,,,D*60
$GNGGA,141806.000,3934.6293,N,10605.3105,W,2,13,0.88,2768.4,M,-19.4,M,,*73
$GPGSV,3,1,11,03,63,219,38,04,60,322,30,16,54,137,39,26,51,070,36*75
$GPGSV,3,2,11,31,40,052,36,48,36,218,36,09,27,304,30,28,12,060,22*7C
$GPGSV,3,3,11,06,09,308,,07,06,248,,01,04,215,*41
$GLGSV,3,1,09,66,71,070,36,76,68,044,34,77,57,204,36,67,35,326,38*68
$GLGSV,3,2,09,65,28,125,32,75,12,032,39,87,06,330,,83,04,324,*6A
$GLGSV,3,3,09,78,01,210,*51
$GNRMC,141806.000,A,3934.6293,N,10605.3105,W,0.34,158.75,070126,,,D*60
$GNGGA,141807.000,3934.6293,N,10605.3106,W,2,13,0.88,2768.4,M,-19.4,M,,*71
$GPGSV,3,1,11,03,63,219,37,04,60,322,28,16,54,137,39,26,51,070,35*70
$GPGSV,3,2,11,31,40,052,35,48,36,218,35,09,27,304,31,28,12,060,22*7D
$GPGSV,3,3,11,06,09,308,,07,06,248,,01,04,215,*41
$GLGSV,3,1,09,66,71,070,36,76,68,044,33,77,57,204,36,67,35,326,38*6F
$GLGSV,3,2,09,65,28,125,32,75,12,032,38,87,06,330,,83,04,324,*6B
$GLGSV,3,3,09,78,01,210,*51
$GNRMC,141807.000,A,3934.6293,N,10605.3106,W,0.05,158.75,070126,,,D*60
$GNGGA,141808.000,3934.6294,N,10605.3106,W,2,13,0.88,2768.5,M,-19.4,M,,*78
$GPGSV,3,1,11,03,63,219,37,04,60,322,28,16,54,137,39,26,51,070,35*70
$GPGSV,3,2,11,31,40,052,35,48,36,218,35,09,27,304,30,28,12,060,21*7F
$GPGSV,3,3,11,06,09,308,,07,06,248,,01,04,214,*40
$GLGSV,3,1,09,66,71,070,36,76,68,044,33,77,57,204,36,67,35,326,37*60
$GLGSV,3,2,09,65,28,125,32,75,12,032,38,87,06,330,,83,04,324,*6B
$GLGSV,3,3,09,78,01,210,*51
$GNRMC,141808.000,A,3934.6294,N,10605.3106,W,0.12,158.75,070126,,,D*6E
$GNGGA,141809.000,3934.6294,N,10605.3106,W,2,13,0.88,2768.5,M,-19.4,M,,*79
$GPGSV,3,1,11,03,63,219,37,04,60,322,27,16,54,137,38,26,51,070,34*7F
$GPGSV,3,2,11,31,40,052,34,48,36,218,34,09,27,304,30,28,12,060,19*74
$GPGSV,3,3,11,06,09,308,,07,06,248,,01,04,214,*40
$GLGSV,3,1,09,66,71,070,35,76,68,044,32,77,57,204,36,67,35,326,36*63
$GLGSV,3,2,09,65,28,125,31,75,12,032,37,87,06,330,,83,04,324,*67
$GLGSV,3,3,09,78,01,210,*51
$GNRMC,141809.000,A,3934.6294,N,10605.3106,W,0.07,158.75,070126,,,D*6B
$GNGGA,141810.000,3934.6294,N,10605.3106,W,2,13,0.88,2768.5,M,-19.4,M,,*71
$GPGSV,3,1,11,03,63,218,37,04,60,322,26,16,54,137,38,26,51,070,34*7F
$GPGSV,3,2,11,31,40,052,34,48,36,218,34,09,27,304,29,28,12,060,18*7D
$GPGSV,3,3,11,06,09,308,,07,06,248,,01,04,214,*40
$GLGSV,3,1,09,66,71,070,35,76,68,044,32,77,57,204,36,67,35,326,36*63
$GLGSV,3,2,09,65,28,125,31,75,12,032,37,87,06,330,,83,04,324,*67
$GLGSV,3,3,09,78,01,210,*51
$GNRMC,141810.000,A,3934.6294,N,10605.3106,W,0.13,158.75,070126,,,D*66
$GNGGA,141811.000,3934.6294,N,10605.3106,W,2,13,0.88,2768.5,M,-19.4,M,,*70
$GPGSV,3,1,11,03,63,218,37,04,61,323,25,16,54,137,38,26,51,070,34*7C
$GPGSV,3,2,11,31,40,052,34,48,36,218,34,09,27,304,29,28,12,060,14*71
$GPGSV,3,3,11,06,09,308,,07,06,248,,01,04,214,*40
$GLGSV,3,1,09,66,71,070,35,76,68,044,32,77,57,204,36,67,35,326,36*63
$GLGSV,3,2,09,65,28,125,31,75,12,032,37,87,06,330,,83,04,324,*67
$GLGSV,3,3,09,78,01,210,*51
$GNRMC,141811.000,A,3934.6294,N,10605.3106,W,0.04,158.75,070126,,,D*61
$GNGGA,141812.000,3934.6294,N,10605.3106,W,2,13,0.88,2768.6,M,-19.4,M,,*70
$GPGSV,3,1,11,03,63,218,37,04,61,323,25,16,54,137,38,26,51,070,34*7C
$GPGSV,3,2,11,31,40,052,34,48,36,218,35,09,27,304,29,28,12,060,12*76
$GPGSV,3,3,11,06,09,308,,07,06,248,,01,04,214,*40
$GLGSV,3,1,09,66,71,070,34,76,68,044,32,77,57,204,36,67,35,326,37*63
$GLGSV,3,2,09,65,28,125,31,75,12,032,37,87,06,330,,83,04,324,*67
$GLGSV,3,3,09,78,01,210,*51
$GNRMC,141812.000,A,3934.6294,N,10605.3106,W,0.06,158.75,070126,,,D*60
$GNGGA,141813.000,3934.6294,N,10605.3106,W,2,13,0.88,2768.6,M,-19.4,M,,*71
$GPGSV,3,1,11,03,63,218,37,04,61,323,26,16,54,137,38,26,51,070,35*7E
$GPGSV,3,2,11,31,40,052,34,48,36,218,36,09,27,304,29,28,12,060,15*72
$GPGSV,3,3,11,06,09,307,,07,06,248,,01,04,214,*4F
$GLGSV,3,1,09,66,71,070,35,76,68,044,32,77,57,204,36,67,35,326,37*62
$GLGSV,3,2,09,65,28,125,32,75,12,032,37,87,06,330,,83,04,324,*64
$GLGSV,3,3,09,78,01,210,*51
$GNRMC,141813.000,A,3934.6294,N,10605.3106,W,0.12,158.75,070126,,,D*64
$GNGGA,141814.000,3934.6293,N,10605.3106,W,2,12,0.92,2768.6,M,-19.4,M,,*7B
$GPGSV,3,1,11,03,63,218,37,04,61,323,26,16,54,137,38,26,51,070,35*7E
$GPGSV,3,2,11,31,40,052,35,48,36,218,36,09,27,304,29,28,12,060,*77
$GPGSV,3,3,11,06,09,307,,07,07,249,,01,04,214,*4F
$GLGSV,3,1,09,66,71,070,36,76,68,044,32,77,57,204,36,67,35,326,37*61
$GLGSV,3,2,09,65,28,125,33,75,12,032,37,87,06,330,,83,04,324,*65
$GLGSV,3,3,09,78,01,210,*51
$GNRMC,141814.000,A,3934.6293,N,10605.3106,W,0.09,158.75,070126,,,D*6E
$GNGGA,141815.000,3934.6293,N,10605.3106,W,2,12,0.92,2768.6,M,-19.4,M,,*7A
$GPGSV,3,1,11,03,63,218,37,04,61,323,26,16,54,137,38,26,51,070,35*7E
$GPGSV,3,2,11,31,40,052,35,48,36,218,36,09,27,304,29,28,12,060,*77
$GPGSV,3,3,11,06,09,307,,07,07,249,,01,04,214,*4F
$GLGSV,3,1,09,66,71,070,36,76,68,044,32,77,57,204,36,67,35,326,37*61
$GLGSV,3,2,09,65,28,125,33,75,12,032,37,87,06,330,,83,04,324,*65
$GLGSV,3,3,09,78,01,210,*51
$GNRMC,141815.000,A,3934.6293,N,10605.3106,W,0.03,158.75,070126,,,D*65
$GNGGA,141816.000,3934.6293,N,10605.3106,W,2,12,0.92,2768.6,M,-19.4,M,,*79
$GPGSV,3,1,11,03,63,218,37,04,61,323,26,16,54,137,38,26,51,070,34*7F
$GPGSV,3,2,11,31,40,052,35,48,36,218,36,09,28,304,29,28,12,060,*78
$GPGSV,3,3,11,06,09,307,,07,07,249,,01,04,214,*4F
$GLGSV,3,1,09,66,71,070,36,76,68,044,33,77,57,204,36,67,35,326,37*60
$GLGSV,3,2,09,65,28,125,33,75,12,032,37,87,06,330,,83,04,324,*65
$GLGSV,3,3,09,78,01,210,*51
$GNRMC,141816.000,A,3934.6293,N,10605.3106,W,0.02,158.75,070126,,,D*67
$GNGGA,141817.000,3934.6293,N,10605.3106,W,2,12,0.92,2768.7,M,-19.4,M,,*79
$GPGSV,3,1,11,03,63,218,37,04,61,323,25,16,54,137,38,26,51,070,34*7C
$GPGSV,3,2,11,31,40,052,35,48,36,218,36,09,28,304,29,28,12,060,*78
$GPGSV,3,3,11,06,09,307,,07,07,249,,01,04,214,*4F
$GLGSV,3,1,09,66,71,070,36,76,68,044,33,77,57,204,36,67,35,326,37*60
$GLGSV,3,2,09,65,28,125,33,75,12,032,37,87,06,330,,83,04,324,*65
$GLGSV,3,3,09,78,01,210,*51
$GNRMC,141817.000,A,3934.6293,N,10605.3106,W,0.02,158.75,070126,,,D*66
$GNGGA,141818.000,3934.6293,N,10605.3106,W,2,12,0.92,2768.6,M,-19.4,M,,*77
$GPGSV,3,1,11,03,63,218,37,04,61,323,25,16,54,137,38,26,51,070,34*7C
$GPGSV,3,2,11,31,40,052,35,48,36,218,36,09,28,304,29,28,12,060,19*70
$GPGSV,3,3,11,06,09,307,,07,07,249,,01,04,214,*4F
$GLGSV,3,1,09,66,71,070,36,76,68,044,33,77,57,204,36,67,35,326,36*61
$GLGSV,3,2,09,65,28,125,33,75,12,032,36,87,06,330,,83,04,324,*64
$GLGSV,3,3,09,78,01,210,*51
$GNRMC,141818.000,A,3934.6293,N,10605.3106,W,0.03,158.75,070126,,,D*68
$GNGGA,141819.000,3934.6293,N,10605.3106,W,2,13,0.88,2768.7,M,-19.4,M,,*7D
$GPGSV,3,1,11,03,63,218,37,04,61,323,24,16,54,137,38,26,51,070,34*7D
$GPGSV,3,2,11,31,40,052,35,48,36,218,36,09,28,304,29,28,12,060,21*7B
$GPGSV,3,3,11,06,09,307,,07,07,249,,01,04,214,*4F
$GLGSV,3,1,09,66,71,070,36,76,68,044,33,77,57,204,36,67,35,326,36*61
$GLGSV,3,2,09,65,28,125,33,75,12,032,36,87,06,330,,83,04,324,*64
$GLGSV,3,3,09,78,01,210,*51
$GNRMC,141819.000,A,3934.6293,N,10605.3106,W,0.04,158.75,070126,,,D*6E
$GNGGA,141820.000,3934.6293,N,10605.3106,W,2,13,0.88,2768.7,M,-19.4,M,,*77
$GPGSV,3,1,11,03,63,218,37,04,61,323,24,16,54,137,38,26,51,070,34*7D
$GPGSV,3,2,11,31,40,052,35,48,36,218,36,09,28,304,29,28,12,060,22*78
$GPGSV,3,3,11,06,09,307,,07,07,249,,01,04,214,*4F
$GLGSV,3,1,09,66,71,070,36,76,68,044,34,77,57,204,36,67,35,326,36*66
$GLGSV,3,2,09,65,28,125,33,75,12,032,36,87,06,330,,83,04,324,*64
$GLGSV,3,3,09,78,01,210,*51
$GNRMC,141820.000,A,3934.6293,N,10605.3106,W,0.02,158.75,070126,,,D*62
$GNGGA,141821.000,3934.6293,N,10605.3106,W,2,13,0.88,2768.7,M,-19.4,M,,*76
$GPGSV,3,1,11,03,63,218,37,04,61,323,24,16,54,137,38,26,51,070,34*7D
$GPGSV,3,2,11,31,40,052,35,48,36,218,36,09,28,304,29,28,12,060,21*7B
$GPGSV,3,3,11,06,09,307,,07,07,249,,01,04,214,*4F
$GLGSV,3,1,09,66,71,070,36,76,68,044,34,77,57,204,36,67,35,326,36*66
$GLGSV,3,2,09,65,28,125,33,75,12,032,36,87,06,330,,83,04,324,*64
$GLGSV,3,3,09,78,01,210,*51
$GNRMC,141821.000,A,3934.6293,N,10605.3106,W,0.02,158.75,070126,,,D*63
$GNGGA,141822.000,3934.6293,N,10605.3106,W,2,13,0.88,2768.7,M,-19.4,M,,*75
$GPGSV,3,1,11,03,63,218,37,04,61,323,24,16,54,137,38,26,51,070,34*7D
$GPGSV,3,2,11,31,40,052,35,48,36,218,36,09,28,304,29,28,12,060,20*7A
$GPGSV,3,3,11,06,09,307,,07,07,249,,01,04,214,*4F
$GLGSV,3,1,09,66,71,070,36,76,68,044,34,77,57,204,36,67,35,326,36*66
$GLGSV,3,2,09,65,28,125,33,75,12,032,36,87,06,330,,83,04,324,*64
$GLGSV,3,3,09,78,01,210,*51
$GNRMC,141822.000,A,3934.6293,N,10605.3106,W,0.02,158.75,070126,,,D*60
$GNGGA,141823.000,3934.6293,N,10605.3106,W,2,13,0.88,2768.7,M,-19.4,M,,*74
$GPGSV,3,1,11,03,63,218,37,04,61,323,24,16,55,136,38,26,51,070,33*7A
$GPGSV,3,2,11,31,40,052,35,48,36,218,36,09,28,304,29,28,12,060,20*7A
$GPGSV,3,3,11,06,09,307,,07,07,249,,01,04,214,*4F
$GLGSV,3,1,09,66,71,070,35,76,68,044,34,77,57,204,36,67,35,326,35*66
$GLGSV,3,2,09,65,28,125,32,75,12,032,36,87,06,330,,83,04,324,*65
$GLGSV,3,3,09,78,01,210,*51
$GNRMC,141823.000,A,3934.6293,N,10605.3106,W,0.10,158.75,070126,,,D*62
$GNGGA,141824.000,3934.6294,N,10605.3106,W,2,13,0.88,2768.7,M,-19.4,M,,*74
$GPGSV,3,1,11,03,63,218,37,04,61,323,24,16,55,136,38,26,51,070,33*7A
$GPGSV,3,2,11,31,40,052,35,48,36,218,36,09,28,304,29,28,12,060,21*7B
$GPGSV,3,3,11,06,09,307,,07,07,249,,01,04,214,*4F
$GLGSV,3,1,09,66,71,070,35,76,68,044,33,77,57,204,36,67,35,326,35*61
$GLGSV,3,2,09,65,28,125,32,75,12,032,36,87,06,330,,83,04,324,*65
$GLGSV,3,3,09,78,01,210,*51
$GNRMC,141824.000,A,3934.6294,N,10605.3106,W,0.04,158.75,070126,,,D*67
$GNGGA,141825.000,3934.6294,N,10605.3106,W,2,13,0.95,2768.7,M,-19.4,M,,*79
$GPGSV,3,1,11,03,63,218,37,04,61,323,24,16,55,136,38,26,51,070,33*7A
$GPGSV,3,2,11,31,40,052,35,48,36,218,36,09,28,304,29,28,12,060,22*78
$GPGSV,3,3,11,06,09,307,,07,07,249,,01,04,214,*4F
$GLGSV,3,1,09,66,71,070,35,76,68,044,34,77,57,204,37,67,35,326,36*64
$GLGSV,3,2,09,65,28,125,32,75,12,032,37,87,06,330,,83,04,324,*64
$GLGSV,3,3,09,78,01,210,*51
$GNRMC,141825.000,A,3934.6294,N,10605.3106,W,0.03,158.75,070126,,,D*61
$GNGGA,141826.000,3934.6294,N,10605.3106,W,2,13,0.88,2768.7,M,-19.4,M,,*76
$GPGSV,3,1,11,03,63,218,37,04,61,323,24,16,55,136,38,26,51,070,33*7A
$GPGSV,3,2,11,31,40,052,35,48,36,218,36,09,28,304,29,28,12,060,22*78
$GPGSV,3,3,11,06,09,307,,07,07,249,,01,04,214,*4F
$GLGSV,3,1,09,66,71,070,35,76,68,044,34,77,57,204,37,67,35,326,36*64
$GLGSV,3,2,09,65,28,125,32,75,12,032,37,87,06,330,,83,04,324,*64
$GLGSV,3,3,09,78,01,210,*51
$GNRMC,141826.000,A,3934.6294,N,10605.3106,W,0.03,158.75,070126,,,D*62
$GNGGA,141827.000,3934.6294,N,10605.3106,W,2,13,0.95,2768.7,M,-19.4,M,,*7B
$GPGSV,3,1,11,03,63,218,36,04,61,323,24,16,55,136,38,26,51,070,33*7B
$GPGSV,3,2,11,31,40,052,34,48,36,218,35,09,28,304,28,28,12,060,22*7B
$GPGSV,3,3,11,06,09,307,,07,07,249,,01,04,214,*4F
$GLGSV,3,1,09,66,71,070,35,76,68,044,33,77,57,204,37,67,35,326,36*63
$GLGSV,3,2,09,65,28,125,31,75,12,032,36,87,06,330,,83,04,324,*66
$GLGSV,3,3,09,78,01,210,*51
$GNRMC,141827.000,A,3934.6294,N,10605.3106,W,0.03,158.75,070126,,,D*63
$GNGGA,141828.000,3934.6294,N,10605.3106,W,2,13,0.88,2768.7,M,-19.4,M,,*78
$GPGSV,3,1,11,03,63,218,36,04,61,323,23,16,55,136,38,26,51,070,33*7C
$GPGSV,3,2,11,31,40,052,34,48,36,218,35,09,28,304,28,28,12,060,22*7B
$GPGSV,3,3,11,06,09,307,,07,07,249,,01,04,214,*4F
$GLGSV,3,1,09,66,71,070,36,76,68,044,33,77,57,204,37,67,35,326,36*60
$GLGSV,3,2,09,65,28,125,31,75,12,032,36,87,06,330,,83,04,324,*66
$GLGSV,3,3,09,78,01,210,*51
$GNRMC,141828.000,A,3934.6294,N,10605.3106,W,0.01,158.75,070126,,,D*6E
$GNGGA,141829.000,3934.6294,N,10605.3106,W,2,13,0.95,2768.7,M,-19.4,M,,*75
$GPGSV,3,1,11,03,63,218,37,04,61,323,23,16,55,136,38,26,51,070,33*7D
$GPGSV,3,2,11,31,40,052,34,48,36,218,35,09,28,304,28,28,12,060,23*7A
$GPGSV,3,3,11,06,09,307,,07,07,249,,01,04,214,*4F
$GLGSV,3,1,09,66,71,070,36,76,68,044,33,77,57,204,37,67,35,326,36*60
$GLGSV,3,2,09,65,28,125,31,75,12,032,36,87,06,330,,83,04,324,*66
$GLGSV,3,3,09,78,01,210,*51
$GNRMC,141829.000,A,3934.6294,N,10605.3106,W,0.11,158.75,070126,,,D*6E
$GNGGA,141830.000,3934.6294,N,10605.3106,W,2,13,0.95,2768.8,M,-19.4,M,,*72
$GPGSV,3,1,11,03,63,218,37,04,61,323,23,16,55,136,38,26,51,070,33*7D
$GPGSV,3,2,11,31,40,052,34,48,36,218,35,09,28,304,28,28,12,060,24*7D
$GPGSV,3,3,11,06,09,307,,07,07,249,,01,04,214,*4F
$GLGSV,3,1,09,66,71,070,36,76,68,044,33,77,57,204,37,67,35,326,36*60
$GLGSV,3,2,09,65,28,125,31,75,12,032,36,87,06,330,,83,04,324,*66
$GLGSV,3,3,09,78,01,210,*51
$GNRMC,141830.000,A,3934.6294,N,10605.3106,W,0.05,158.75,070126,,,D*63
$GNGGA,141831.000,3934.6294,N,10605.3106,W,2,13,0.95,2768.8,M,-19.4,M,,*73
$GPGSV,3,1,11,03,63,218,37,04,61,323,23,16,55,136,38,26,51,070,33*7D
$GPGSV,3,2,11,31,40,052,34,48,36,218,35,09,28,304,29,28,12,060,24*7C
$GPGSV,3,3,11,06,09,307,,07,07,249,,01,04,214,*4F
$GLGSV,3,1,09,66,71,070,36,76,68,044,33,77,57,204,37,67,35,326,36*60
$GLGSV,3,2,09,65,28,125,31,75,12,032,36,87,06,330,,83,04,324,*66
$GLGSV,3,3,09,78,01,210,*51
$GNRMC,141831.000,A,3934.6294,N,10605.3106,W,0.04,158.75,070126,,,D*63
$GNGGA,141832.000,3934.6294,N,10605.3106,W,2,13,0.95,2768.8,M,-19.4,M,,*70
$GPGSV,3,1,11,03,63,218,37,04,61,323,23,16,55,136,38,26,51,070,33*7D
$GPGSV,3,2,11,31,40,052,34,48,36,218,34,09,28,304,29,28,12,060,24*7D
$GPGSV,3,3,11,06,09,307,,07,07,249,,01,04,214,*4F
$GLGSV,3,1,09,66,71,070,36,76,68,044,33,77,57,204,36,67,35,326,36*61
$GLGSV,3,2,09,65,28,125,31,75,12,032,36,87,06,330,,83,04,324,*66
$GLGSV,3,3,09,78,01,210,*51
$GNRMC,141832.000,A,3934.6294,N,10605.3106,W,0.04,158.75,070126,,,D*60
$GNGGA,141833.000,3934.6294,N,10605.3106,W,2,13,0.95,2768.8,M,-19.4,M,,*71
$GPGSV,3,1,11,03,63,218,37,04,61,323,23,16,55,136,38,26,51,069,33*75
$GPGSV,3,2,11,31,40,052,34,48,36,218,35,09,28,304,29,28,12,060,24*7C
$GPGSV,3,3,11,06,09,307,,07,07,249,,01,04,214,*4F
$GLGSV,3,1,09,66,71,070,36,76,68,044,34,77,57,204,36,67,35,326,36*66
$GLGSV,3,2,09,65,28,125,31,75,12,032,36,87,06,330,,83,04,324,*66
$GLGSV,3,3,09,78,01,210,*51
$GNRMC,141833.000,A,3934.6294,N,10605.3106,W,0.16,158.75,070126,,,D*62
$GNGGA,141834.000,3934.6294,N,10605.3106,W,2,13,0.95,2769.0,M,-19.4,M,,*7F
$GPGSV,3,1,12,03,63,218,37,04,61,323,23,16,55,136,38,26,51,069,33*76
$GPGSV,3,2,12,31,40,052,34,48,36,218,35,09,28,304,29,28,12,060,24*7F
$GPGSV,3,3,12,06,09,307,,07,07,249,,01,04,214,,27,01,144,*79
$GLGSV,3,1,09,66,71,070,36,76,68,044,34,77,57,204,36,67,35,326,36*66
$GLGSV,3,2,09,65,28,125,31,75,12,032,36,87,06,330,,83,04,324,*66
$GLGSV,3,3,09,78,01,210,*51
$GNRMC,141834.000,A,3934.6294,N,10605.3106,W,0.11,158.75,070126,,,D*62
$GNGGA,141835.000,3934.6294,N,10605.3106,W,2,13,0.95,2769.0,M,-19.4,M,,*7E
$GPGSV,3,1,12,03,63,218,37,04,61,323,23,16,55,136,38,26,51,069,33*76
$GPGSV,3,2,12,31,40,052,34,48,36,218,35,09,28,304,29,28,11,061,24*7D
$GPGSV,3,3,12,06,09,307,,07,07,249,,01,04,214,,27,01,144,*79
$GLGSV,3,1,09,66,71,070,36,76,68,044,34,77,57,204,36,67,35,326,36*66
$GLGSV,3,2,09,65,28,125,31,75,12,032,36,87,06,330,,83,04,324,*66
$GLGSV,3,3,09,78,01,210,*51
$GNRMC,141835.000,A,3934.6294,N,10605.3106,W,0.02,158.75,070126,,,D*61
$GNGGA,141836.000,3934.6294,N,10605.3106,W,2,13,0.95,2769.0,M,-19.4,M,,*7D
$GPGSV,3,1,12,03,63,218,37,04,61,323,23,16,55,136,38,26,51,069,34*71
$GPGSV,3,2,12,31,40,052,34,48,36,218,36,09,28,304,29,28,11,061,24*7E
$GPGSV,3,3,12,06,09,307,,07,07,249,,01,04,214,,27,01,144,*79
$GLGSV,3,1,09,66,71,070,36,76,68,044,34,77,57,204,37,67,35,326,37*66
$GLGSV,3,2,09,65,28,125,31,75,12,032,36,87,06,330,,83,04,324,*66
$GLGSV,3,3,09,78,01,210,*51
$GNRMC,141836.000,A,3934.6294,N,10605.3106,W,0.03,158.75,070126,,,D*63
$GNGGA,141837.000,3934.6294,N,10605.3106,W,2,13,0.95,2769.0,M,-19.4,M,,*7C
$GPGSV,3,1,12,03,63,218,37,04,61,323,24,16,55,136,38,26,51,069,34*76
$GPGSV,3,2,12,31,40,052,34,48,36,218,35,09,28,304,29,28,11,061,24*7D
$GPGSV,3,3,12,06,09,307,,07,07,249,,01,04,214,,27,01,144,*79
$GLGSV,3,1,09,66,71,070,36,76,68,044,34,77,57,204,37,67,35,326,37*66
$GLGSV,3,2,09,65,28,125,31,75,12,032,36,87,06,330,,83,04,324,*66
$GLGSV,3,3,09,78,01,210,*51
$GNRMC,141837.000,A,3934.6294,N,10605.3106,W,0.03,158.75,070126,,,D*62
$GNGGA,141838.000,3934.6294,N,10605.3106,W,2,13,0.95,2769.1,M,-19.4,M,,*72
$GPGSV,3,1,12,03,63,218,37,04,61,323,24,16,55,136,38,26,51,069,34*76
$GPGSV,3,2,12,31,40,052,34,48,36,218,35,09,28,304,29,28,11,061,24*7D
$GPGSV,3,3,12,06,09,307,,07,07,249,,01,04,214,,27,01,144,*79
$GLGSV,3,1,09,66,71,070,36,76,68,044,34,77,57,204,37,67,35,326,37*66
$GLGSV,3,2,09,65,28,125,31,75,12,032,36,87,06,330,,83,04,324,*66
$GLGSV,3,3,09,78,01,210,*51
$GNRMC,141838.000,A,3934.6294,N,10605.3106,W,0.01,158.75,070126,,,D*6F
$GNGGA,141839.000,3934.6294,N,10605.3106,W,2,13,0.88,2769.0,M,-19.4,M,,*7E
$GPGSV,3,1,12,03,63,218,37,04,61,323,21,16,55,136,38,26,51,069,34*73
$GPGSV,3,2,12,31,40,052,34,48,36,218,35,09,28,304,29,28,11,061,24*7D
$GPGSV,3,3,12,06,09,307,,07,07,249,,01,04,214,,27,01,144,*79
$GLGSV,3,1,09,66,71,070,36,76,68,044,34,77,57,204,37,67,35,326,37*66
$GLGSV,3,2,09,65,28,125,31,75,12,032,36,87,06,330,,83,04,324,*66
$GLGSV,3,3,09,78,01,210,*51
$GNRMC,141839.000,A,3934.6294,N,10605.3106,W,0.01,158.75,070126,,,D*6E
$GNGGA,141840.000,3934.6294,N,10605.3106,W,2,13,0.95,2769.1,M,-19.4,M,,*7D
$GPGSV,3,1,12,03,63,218,37,04,61,323,21,16,55,136,38,26,51,069,34*73
$GPGSV,3,2,12,31,40,052,33,48,36,218,35,09,28,304,29,28,11,061,24*7A
$GPGSV,3,3,12,06,09,307,,07,07,249,,01,04,214,,27,01,144,*79
$GLGSV,3,1,09,66,71,070,36,76,68,044,34,77,57,204,37,67,35,326,37*66
$GLGSV,3,2,09,65,28,125,30,75,12,032,36,87,06,330,,83,04,324,*67
$GLGSV,3,3,09,78,01,210,*51
$GNRMC,141840.000,A,3934.6294,N,10605.3106,W,0.01,158.75,070126,,,D*60
$GNGGA,141841.000,3934.6294,N,10605.3106,W,2,13,0.88,2769.1,M,-19.4,M,,*70
$GPGSV,3,1,12,03,63,218,37,04,61,323,21,16,55,136,38,26,51,069,34*73
$GPGSV,3,2,12,31,40,052,34,48,36,218,35,09,28,304,29,28,11,061,24*7D
$GPGSV,3,3,12,06,09,307,,07,07,249,,01,04,214,,27,01,144,*79
$GLGSV,3,1,09,66,71,070,36,76,68,044,34,77,57,204,37,67,35,326,37*66
$GLGSV,3,2,09,65,28,125,30,75,12,032,36,87,06,330,,83,04,324,*67
$GLGSV,3,3,09,78,01,210,*51
$GNRMC,141841.000,A,3934.6294,N,10605.3106,W,0.01,158.75,070126,,,D*61
$GNGGA,141842.000,3934.6294,N,10605.3106,W,2,13,0.95,2769.1,M,-19.4,M,,*7F
$GPGSV,3,1,12,03,63,218,37,04,61,323,21,16,55,136,38,26,51,069,34*73
$GPGSV,3,2,12,31,40,052,34,48,36,218,35,09,28,304,29,28,11,061,24*7D
$GPGSV,3,3,12,06,09,307,,07,07,249,,01,04,214,,27,01,144,*79
$GLGSV,3,1,09,66,71,070,37,76,68,044,35,77,57,204,37,67,35,326,38*69
$GLGSV,3,2,09,65,28,125,30,75,12,032,37,87,06,330,,83,04,324,*66
$GLGSV,3,3,09,78,01,210,*51
$GNRMC,141842.000,A,3934.6294,N,10605.3106,W,0.06,158.75,070126,,,D*65
$GNGGA,141843.000,3934.6294,N,10605.3106,W,2,13,0.95,2769.0,M,-19.4,M,,*7F
$GPGSV,3,1,12,03,63,218,37,04,61,323,21,16,55,136,39,26,51,069,34*72
$GPGSV,3,2,12,31,40,052,34,48,36,218,35,09,28,304,29,28,11,061,25*7C
$GPGSV,3,3,12,06,09,307,,07,07,249,,01,04,214,,27,01,144,*79
$GLGSV,3,1,09,66,71,070,37,76,68,044,35,77,57,204,37,67,35,326,38*69
$GLGSV,3,2,09,65,28,125,30,75,12,032,37,87,06,330,,83,04,324,*66
$GLGSV,3,3,09,78,01,210,*51
$GNRMC,141843.000,A,3934.6294,N,10605.3106,W,0.02,158.75,070126,,,D*60
$GNGGA,141844.000,3934.6294,N,10605.3106,W,2,13,0.95,2769.1,M,-19.4,M,,*79
$GPGSV,3,1,12,03,63,218,37,04,61,323,22,16,55,136,39,26,51,069,34*71
$GPGSV,3,2,12,31,40,052,34,48,36,218,35,09,28,304,29,28,11,061,25*7C
$GPGSV,3,3,12,06,09,307,,07,07,249,,01,04,214,,27,01,144,*79
$GLGSV,3,1,09,66,71,070,37,76,68,044,35,77,57,204,36,67,35,326,38*68
$GLGSV,3,2,09,65,28,125,30,75,12,032,37,87,06,330,,83,04,324,*66
$GLGSV,3,3,09,78,01,210,*51
$GNRMC,141844.000,A,3934.6294,N,10605.3106,W,0.02,158.75,070126,,,D*67
$GNGGA,141845.000,3934.6294,N,10605.3106,W,2,13,0.95,2769.0,M,-19.4,M,,*79
$GPGSV,3,1,12,03,63,218,37,04,61,323,22,16,55,136,39,26,51,069,34*71
$GPGSV,3,2,12,31,40,052,34,48,36,218,35,09,28,304,29,28,11,061,25*7C
$GPGSV,3,3,12,06,09,307,,07,07,249,,01,04,214,,27,01,144,*79
$GLGSV,3,1,09,66,71,070,37,76,68,044,35,77,57,204,37,67,35,326,38*69
$GLGSV,3,2,09,65,28,125,30,75,12,032,37,87,06,330,,83,04,324,*66
$GLGSV,3,3,09,78,01,210,*51
$GNRMC,141845.000,A,3934.6294,N,10605.3106,W,0.02,158.75,070126,,,D*66
$GNGGA,141846.000,3934.6294,N,10605.3106,W,2,13,0.95,2769.1,M,-19.4,M,,*7B
$GPGSV,3,1,12,03,63,218,37,04,61,323,22,16,55,136,39,26,51,069,34*71
$GPGSV,3,2,12,31,40,052,34,48,36,218,35,09,28,304,29,28,11,061,26*7F
$GPGSV,3,3,12,06,09,307,,07,07,249,,01,04,214,,27,01,144,*79
$GLGSV,3,1,09,66,71,070,37,76,68,044,35,77,57,204,37,67,35,326,38*69
$GLGSV,3,2,09,65,28,125,30,75,12,032,37,87,06,330,,83,04,324,*66
$GLGSV,3,3,09,78,01,210,*51
$GNRMC,141846.000,A,3934.6294,N,10605.3106,W,0.04,158.75,070126,,,D*63
$GNGGA,141847.000,3934.6294,N,10605.3106,W,2,13,0.95,2769.1,M,-19.4,M,,*7A
$GPGSV,3,1,12,03,63,218,37,04,61,323,22,16,55,136,39,26,51,069,34*71
$GPGSV,3,2,12,31,40,052,34,48,36,218,35,09,28,304,29,28,11,061,26*7F
$GPGSV,3,3,12,06,09,307,,07,07,249,,01,04,214,,27,01,144,*79
$GLGSV,3,1,09,66,71,070,37,76,68,044,35,77,57,204,36,67,35,326,38*68
$GLGSV,3,2,09,65,28,125,30,75,12,032,37,87,06,330,,83,04,324,*66
$GLGSV,3,3,09,78,01,210,*51
$GNRMC,141847.000,A,3934.6294,N,10605.3106,W,0.01,158.75,070126,,,D*67
$GNGGA,141848.000,3934.6294,N,10605.3106,W,2,13,0.95,2769.1,M,-19.4,M,,*75
$GPGSV,3,1,12,03,63,218,35,04,61,323,20,16,55,136,37,26,51,069,32*79
$GPGSV,3,2,12,31,40,052,33,48,36,218,33,09,28,304,28,28,11,061,25*7C
$GPGSV,3,3,12,06,09,307,,07,07,249,,01,04,214,,27,01,144,*79
$GLGSV,3,1,09,66,71,070,35,76,68,044,33,77,57,204,35,67,35,326,36*61
$GLGSV,3,2,09,65,28,125,29,75,12,032,35,87,06,330,,83,04,324,*6C
$GLGSV,3,3,09,78,01,210,*51
$GNRMC,141848.000,A,3934.6294,N,10605.3106,W,0.01,158.75,070126,,,D*68
$GNGGA,141849.000,3934.6294,N,10605.3106,W,2,13,0.95,2769.1,M,-19.4,M,,*74
$GPGSV,3,1,12,03,63,218,36,04,61,323,20,16,55,136,37,26,51,069,33*7B
$GPGSV,3,2,12,31,40,052,34,48,40,208,34,09,28,304,29,28,11,061,25*7D
$GPGSV,3,3,12,06,09,307,,07,07,249,,01,04,214,,27,01,144,*79
$GLGSV,3,1,09,66,71,070,35,76,68,044,34,77,57,204,35,67,35,326,37*67
$GLGSV,3,2,09,65,28,125,30,75,12,032,36,87,06,330,,83,04,324,*67
$GLGSV,3,3,09,78,01,210,*51
$GNRMC,141849.000,A,3934.6294,N,10605.3106,W,0.02,158.75,070126,,,D*6A
$GNGGA,141850.000,3934.6294,N,10605.3106,W,2,13,0.95,2769.1,M,-19.4,M,,*7C
$GPGSV,3,1,12,03,63,218,37,04,61,323,21,16,55,136,38,26,51,069,34*73
$GPGSV,3,2,12,31,40,052,35,48,40,208,35,09,28,304,29,28,11,061,26*7E
$GPGSV,3,3,12,06,09,307,,07,07,249,,01,04,214,,27,01,144,*79
$GLGSV,3,1,09,66,71,070,36,76,68,044,34,77,57,204,36,67,35,326,37*67
$GLGSV,3,2,09,65,28,125,31,75,12,032,37,87,06,330,,83,04,324,*67
$GLGSV,3,3,09,78,01,210,*51
$GNRMC,141850.000,A,3934.6294,N,10605.3106,W,0.35,158.75,070126,,,D*66
$GNGGA,141851.000,3934.6295,N,10605.3106,W,2,13,0.95,2769.2,M,-19.4,M,,*7F
$GPGSV,3,1,12,03,63,218,38,04,61,323,21,16,55,136,39,26,51,069,34*7D
$GPGSV,3,2,12,31,40,052,36,48,40,208,35,09,28,304,30,28,11,061,26*75
$GPGSV,3,3,12,06,09,307,,07,07,249,,01,04,214,,27,01,144,*79
$GLGSV,3,1,09,66,71,070,37,76,68,044,35,77,57,204,37,67,35,326,38*69
$GLGSV,3,2,09,65,28,125,32,75,12,032,37,87,06,330,,83,04,324,*64
$GLGSV,3,3,09,78,01,210,*51
$GNRMC,141851.000,A,3934.6295,N,10605.3106,W,0.24,158.75,070126,,,D*66
$GNGGA,141852.000,3934.6295,N,10605.3106,W,2,13,0.95,2769.3,M,-19.4,M,,*7D
$GPGSV,3,1,12,03,63,218,38,04,61,323,21,16,55,136,40,26,51,069,35*72
$GPGSV,3,2,12,31,40,052,36,48,40,208,36,09,28,304,30,28,11,061,27*77
$GPGSV,3,3,12,06,09,307,,07,07,249,,01,04,214,,27,01,144,*79
$GLGSV,3,1,09,66,71,070,38,76,68,044,35,77,57,204,37,67,35,326,38*66
$GLGSV,3,2,09,65,28,125,33,75,12,032,37,87,06,330,,83,04,324,*65
$GLGSV,3,3,09,78,01,210,*51
$GNRMC,141852.000,A,3934.6295,N,10605.3106,W,0.24,158.75,070126,,,D*65
$GNGGA,141853.000,3934.6296,N,10605.3106,W,2,13,0.95,2769.4,M,-19.4,M,,*78
$GPGSV,3,1,12,03,63,218,38,04,61,323,21,16,55,136,40,26,51,069,35*72
$GPGSV,3,2,12,31,40,052,35,48,40,208,36,09,28,304,30,28,11,061,27*74
$GPGSV,3,3,12,06,09,307,,07,07,249,,01,04,214,,27,01,144,*79
$GLGSV,3,1,09,66,71,070,38,76,68,044,35,77,57,204,36,67,35,326,38*67
$GLGSV,3,2,09,65,28,125,33,75,12,032,37,87,06,330,,83,04,324,*65
$GLGSV,3,3,09,78,01,210,*51
$GNRMC,141853.000,A,3934.6296,N,10605.3106,W,0.39,158.75,070126,,,D*6B
$GNGGA,141854.000,3934.6296,N,10605.3106,W,2,13,0.95,2769.6,M,-19.4,M,,*7D
$GPGSV,3,1,12,03,63,218,38,04,61,323,21,16,55,136,40,26,51,069,35*72
$GPGSV,3,2,12,31,40,052,35,48,40,208,36,09,28,304,30,28,11,061,27*74
$GPGSV,3,3,12,06,09,307,,07,07,249,,01,04,214,,27,01,144,*79
$GLGSV,3,1,09,66,71,070,37,76,68,044,35,77,57,204,36,67,35,326,38*68
$GLGSV,3,2,09,65,28,125,33,75,12,032,37,87,06,330,,83,04,324,*65
$GLGSV,3,3,09,78,01,210,*51
$GNRMC,141854.000,A,3934.6296,N,10605.3106,W,0.37,158.75,070126,,,D*62
$GNGGA,141855.000,3934.6297,N,10605.3106,W,2,13,0.95,2769.7,M,-19.4,M,,*7C
$GPGSV,3,1,12,03,63,218,38,04,61,323,21,16,55,136,40,26,51,069,35*72
$GPGSV,3,2,12,31,40,052,35,48,40,208,36,09,28,304,30,28,11,061,27*74
$GPGSV,3,3,12,06,09,307,,07,07,249,,01,04,214,,27,01,144,*79
$GLGSV,3,1,09,66,71,070,37,76,68,044,35,77,57,204,36,67,35,326,38*68
$GLGSV,3,2,09,65,28,125,33,75,12,032,37,87,06,330,,83,04,324,*65
$GLGSV,3,3,09,78,01,210,*51
$GNRMC,141855.000,A,3934.6297,N,10605.3106,W,0.03,158.75,070126,,,D*65
$GNGGA,141856.000,3934.6297,N,10605.3106,W,2,13,0.95,2769.8,M,-19.4,M,,*70
$GPGSV,3,1,12,03,63,218,38,04,61,323,21,16,55,136,40,26,51,069,35*72
$GPGSV,3,2,12,31,40,052,35,48,40,208,36,09,28,304,30,28,11,061,27*74
$GPGSV,3,3,12,06,09,307,,07,07,249,,01,04,214,,27,01,144,*79
$GLGSV,3,1,09,66,71,070,37,76,68,044,35,77,57,204,37,67,35,326,38*69
$GLGSV,3,2,09,65,28,125,33,75,12,032,37,87,06,330,,83,04,324,*65
$GLGSV,3,3,09,78,01,210,*51
$GNRMC,141856.000,A,3934.6297,N,10605.3106,W,0.48,158.75,070126,,,D*69
$GNGGA,141857.000,3934.6297,N,10605.3107,W,2,13,0.95,2769.8,M,-19.4,M,,*70
$GPGSV,3,1,12,03,63,218,38,04,61,323,21,16,55,136,40,26,51,069,35*72
$GPGSV,3,2,12,31,40,052,35,48,40,208,36,09,28,304,30,28,11,061,27*74
$GPGSV,3,3,12,06,09,307,,07,07,249,,01,04,214,,27,01,144,*79
$GLGSV,3,1,09,66,71,070,37,76,68,044,34,77,57,204,37,67,35,326,37*67
$GLGSV,3,2,09,65,28,125,33,75,12,032,36,87,06,330,,83,04,324,*64
$GLGSV,3,3,09,78,01,210,*51
$GNRMC,141857.000,A,3934.6297,N,10605.3107,W,0.22,158.75,070126,,,D*65
$GNGGA,141858.000,3934.6297,N,10605.3107,W,2,13,0.95,2769.8,M,-19.4,M,,*7F
$GPGSV,3,1,12,03,63,218,38,04,61,323,21,16,55,136,39,26,51,069,35*7C
$GPGSV,3,2,12,31,40,052,35,48,40,208,36,09,28,304,30,28,11,061,27*74
$GPGSV,3,3,12,06,09,307,,07,07,249,,01,04,214,,27,01,144,*79
$GLGSV,3,1,09,66,71,070,37,76,68,044,34,77,57,204,36,67,35,326,37*66
$GLGSV,3,2,09,65,28,125,33,75,12,032,36,87,06,330,,83,04,324,*64
$GLGSV,3,3,09,78,01,210,*51
$GNRMC,141858.000,A,3934.6297,N,10605.3107,W,0.13,158.75,070126,,,D*68
$GNGGA,141859.000,3934.6297,N,10605.3107,W,2,13,0.95,2769.9,M,-19.4,M,,*7F
$GPGSV,3,1,12,03,63,218,38,04,61,323,21,16,55,136,39,26,51,069,35*7C
$GPGSV,3,2,12,31,40,052,35,48,40,208,36,09,28,304,30,28,11,061,27*74
$GPGSV,3,3,12,06,09,307,,07,07,249,,01,04,214,,27,01,144,*79
$GLGSV,3,1,09,66,71,070,37,76,68,044,34,77,57,204,36,67,35,326,37*66
$GLGSV,3,2,09,65,28,125,33,75,12,032,36,87,06,330,,83,04,324,*64
$GLGSV,3,3,09,78,01,210,*51
$GNRMC,141859.000,A,3934.6297,N,10605.3107,W,0.41,158.75,070126,,,D*6E
$GNGGA,141900.000,3934.6298,N,10605.3108,W,2,13,0.95,2770.0,M,-19.4,M,,*73
$GPGSV,3,1,12,03,63,218,38,04,61,323,21,16,55,136,40,26,51,069,35*72
$GPGSV,3,2,12,31,40,052,35,48,40,208,36,09,28,304,30,28,11,061,28*7B
$GPGSV,3,3,12,06,09,307,,07,07,249,,01,04,214,,27,01,144,*79
$GLGSV,3,1,09,66,71,070,37,76,68,044,34,77,57,204,37,67,35,326,37*67
$GLGSV,3,2,09,65,28,125,33,75,12,032,36,87,06,330,,83,04,324,*64
$GLGSV,3,3,09,78,01,210,*51
$GNRMC,141900.000,A,3934.6298,N,10605.3108,W,0.02,158.75,070126,,,D*64
$GNGGA,141901.000,3934.6298,N,10605.3108,W,2,13,0.95,2770.1,M,-19.4,M,,*73
$GPGSV,3,1,12,03,63,218,38,04,61,323,21,16,55,136,40,26,51,069,35*72
$GPGSV,3,2,12,31,40,052,35,48,40,208,36,09,28,304,30,28,11,061,28*7B
$GPGSV,3,3,12,06,09,307,,07,07,249,,01,04,214,,27,01,144,*79
$GLGSV,3,1,09,66,71,070,37,76,68,044,34,77,57,204,37,67,35,326,36*66
$GLGSV,3,2,09,65,28,125,33,75,12,032,36,87,06,330,,83,04,324,*64
$GLGSV,3,3,09,78,01,210,*51
$GNRMC,141901.000,A,3934.6298,N,10605.3108,W,0.06,158.75,070126,,,D*61
$GNGGA,141902.000,3934.6298,N,10605.3108,W,2,13,0.88,2770.1,M,-19.4,M,,*7C
$GPGSV,3,1,12,03,63,218,36,04,61,323,20,16,55,136,38,26,51,069,33*74
$GPGSV,3,2,12,31,40,052,33,48,40,208,34,09,28,304,28,28,11,061,26*78
$GPGSV,3,3,12,06,09,307,,07,07,249,,01,04,214,,27,01,144,*79
$GLGSV,3,1,09,66,71,070,36,76,68,044,33,77,57,204,36,67,35,326,35*62
$GLGSV,3,2,09,65,28,125,31,75,12,032,35,87,06,330,,83,04,324,*65
$GLGSV,3,3,09,78,01,210,*51
$GNRMC,141902.000,A,3934.6298,N,10605.3108,W,0.08,158.75,070126,,,D*6C
$GNGGA,141903.000,3934.6298,N,10605.3109,W,2,13,0.95,2770.2,M,-19.4,M,,*73
$GPGSV,3,1,12,03,63,218,37,04,61,323,20,16,55,136,38,26,51,069,34*72
$GPGSV,3,2,12,31,40,052,34,48,40,208,34,09,28,304,28,28,11,061,26*7F
$GPGSV,3,3,12,06,09,307,,07,07,249,,01,04,214,,27,01,144,*79
$GLGSV,3,1,09,66,71,070,37,76,68,044,34,77,57,204,36,67,35,326,36*67
$GLGSV,3,2,09,65,28,125,32,75,12,032,35,87,06,330,,83,04,324,*66
$GLGSV,3,3,09,78,01,210,*51
$GNRMC,141903.000,A,3934.6298,N,10605.3109,W,0.41,158.75,070126,,,D*61
$GNGGA,141904.000,3934.6298,N,10605.3109,W,2,13,0.95,2770.2,M,-19.4,M,,*74
$GPGSV,3,1,12,03,63,218,37,04,61,323,21,16,55,136,38,26,51,069,34*73
$GPGSV,3,2,12,31,40,052,34,48,40,208,34,09,28,304,30,28,11,061,26*76
$GPGSV,3,3,12,06,09,307,,07,07,249,,01,04,214,,27,01,144,*79
$GLGSV,3,1,09,66,71,070,37,76,68,044,34,77,57,204,36,67,35,326,36*67
$GLGSV,3,2,09,65,28,125,32,75,12,032,35,87,06,330,,83,04,324,*66
$GLGSV,3,3,09,78,01,210,*51
$GNRMC,141904.000,A,3934.6298,N,10605.3109,W,0.26,158.75,070126,,,D*67
$GNGGA,141905.000,3934.6299,N,10605.3109,W,2,13,0.95,2770.4,M,-19.4,M,,*72
$GPGSV,3,1,12,03,63,218,37,04,61,323,21,16,55,136,38,26,51,069,34*73
$GPGSV,3,2,12,31,40,052,34,48,40,208,35,09,28,304,29,28,11,061,26*7F
$GPGSV,3,3,12,06,09,307,,07,07,249,,01,04,214,,27,01,144,*79
$GLGSV,3,1,09,66,71,070,37,76,68,044,34,77,57,204,37,67,35,326,36*66
$GLGSV,3,2,09,65,28,125,32,75,12,032,35,87,06,330,,83,04,324,*66
$GLGSV,3,3,09,78,01,210,*51
$GNRMC,141905.000,A,3934.6299,N,10605.3109,W,0.27,158.75,070126,,,D*66
$GNGGA,141906.000,3934.6299,N,10605.3109,W,2,13,0.88,2770.4,M,-19.4,M,,*7D
$GPGSV,3,1,12,03,63,218,37,04,61,323,20,16,55,136,38,26,51,069,34*72
$GPGSV,3,2,12,31,40,052,34,48,40,208,35,09,28,304,28,28,11,061,26*7E
$GPGSV,3,3,12,06,09,307,,07,07,249,,01,04,214,,27,01,144,*79
$GLGSV,3,1,09,66,71,070,37,76,68,044,34,77,57,204,36,67,35,326,36*67
$GLGSV,3,2,09,65,28,125,31,75,12,032,35,87,06,330,,83,04,324,*65
$GLGSV,3,3,09,78,01,210,*51
$GNRMC,141906.000,A,3934.6299,N,10605.3109,W,0.04,158.75,070126,,,D*64
$GNGGA,141907.000,3934.6299,N,10605.3108,W,2,13,0.95,2770.6,M,-19.4,M,,*73
$GPGSV,3,1,12,03,63,218,38,04,61,323,20,16,55,136,39,26,51,069,35*7D
$GPGSV,3,2,12,31,40,052,34,48,40,208,35,09,28,304,29,28,11,061,26*7F
$GPGSV,3,3,12,06,09,307,,07,07,249,,01,04,214,,27,01,144,*79
$GLGSV,3,1,09,66,71,070,37,76,68,044,34,77,57,204,36,67,35,326,36*67
$GLGSV,3,2,09,65,28,125,31,75,12,032,35,87,06,330,,83,04,324,*65
$GLGSV,3,3,09,78,01,210,*51
$GNRMC,141907.000,A,3934.6299,N,10605.3108,W,0.69,6.87,070126,,,D*68
$GNGGA,141908.000,3934.6300,N,10605.3108,W,2,13,0.95,2770.6,M,-19.4,M,,*7D
$GPGSV,3,1,12,03,63,218,38,04,61,323,20,16,55,136,39,26,51,069,35*7D
$GPGSV,3,2,12,31,40,052,35,48,40,208,35,09,28,304,29,28,11,061,26*7E
$GPGSV,3,3,12,06,09,307,,07,07,249,,01,04,214,,27,01,144,*79
$GLGSV,3,1,09,66,71,070,37,76,68,044,34,77,57,204,36,67,35,326,37*66
$GLGSV,3,2,09,65,28,125,31,75,12,032,35,87,06,330,,83,04,324,*65
$GLGSV,3,3,09,78,01,210,*51
$GNRMC,141908.000,A,3934.6300,N,10605.3108,W,0.52,6.87,070126,,,D*6E
$GNGGA,141909.000,3934.6301,N,10605.3108,W,2,13,0.95,2770.9,M,-19.4,M,,*72
$GPGSV,3,1,12,03,63,218,38,04,61,323,20,16,55,136,39,26,51,069,35*7D
$GPGSV,3,2,12,31,40,052,35,48,40,208,35,09,28,304,29,28,11,061,27*7F
$GPGSV,3,3,12,06,09,307,,07,07,249,,01,04,214,,27,01,144,*79
$GLGSV,3,1,09,66,71,070,37,76,68,044,34,77,57,204,36,67,35,326,37*66
$GLGSV,3,2,09,65,28,125,31,75,12,032,35,87,06,330,,83,04,324,*65
$GLGSV,3,3,09,78,01,210,*51
$GNRMC,141909.000,A,3934.6301,N,10605.3108,W,0.42,6.87,070126,,,D*6F
$GNGGA,141910.000,3934.6302,N,10605.3108,W,2,13,0.88,2771.1,M,-19.4,M,,*7C
$GPGSV,3,1,12,03,63,218,38,04,61,323,20,16,55,136,39,26,51,069,35*7D
$GPGSV,3,2,12,31,40,052,35,48,40,208,35,09,28,304,29,28,11,061,26*7E
$GPGSV,3,3,12,06,09,307,,07,07,249,,01,04,214,,27,01,144,*79
$GLGSV,3,1,09,66,71,070,37,76,68,044,34,77,57,204,37,67,35,326,37*67
$GLGSV,3,2,09,65,28,125,32,75,12,032,35,87,06,330,,83,04,324,*66
$GLGSV,3,3,09,78,01,210,*51
$GNRMC,141910.000,A,3934.6302,N,10605.3108,W,0.01,6.87,070126,,,D*63
$GNGGA,141911.000,3934.6302,N,10605.3108,W,2,13,0.88,2771.2,M,-19.4,M,,*7E
$GPGSV,3,1,12,03,63,218,38,04,61,323,20,16,55,136,39,26,51,069,35*7D
$GPGSV,3,2,12,31,40,052,35,48,40,208,36,09,28,304,29,28,11,061,26*7D
$GPGSV,3,3,12,06,09,307,,07,07,249,,01,04,214,,27,01,144,*79
$GLGSV,3,1,09,66,71,070,37,76,68,044,34,77,57,204,37,67,35,326,37*67
$GLGSV,3,2,09,65,28,125,32,75,12,032,35,87,06,330,,83,04,324,*66
$GLGSV,3,3,09,78,01,210,*51
$GNRMC,141911.000,A,3934.6302,N,10605.3108,W,0.03,6.87,070126,,,D*60
$GNGGA,141912.000,3934.6302,N,10605.3108,W,2,13,0.88,2771.2,M,-19.4,M,,*7D
$GPGSV,3,1,12,03,63,218,38,04,61,323,19,16,55,136,39,26,51,069,35*77
$GPGSV,3,2,12,31,40,052,35,48,40,208,36,09,28,304,29,28,11,061,26*7D
$GPGSV,3,3,12,06,09,307,,07,07,249,,01,04,214,,27,01,144,*79
$GLGSV,3,1,09,66,71,070,37,76,68,044,34,77,57,204,37,67,35,326,37*67
$GLGSV,3,2,09,65,28,125,32,75,12,032,35,87,06,330,,83,04,324,*66
$GLGSV,3,3,09,78,01,210,*51
$GNRMC,141912.000,A,3934.6302,N,10605.3108,W,0.03,6.87,070126,,,D*63
$GNGGA,141913.000,3934.6302,N,10605.3108,W,2,13,0.88,2771.2,M,-19.4,M,,*7C
$GPGSV,3,1,12,03,63,218,38,04,61,323,19,16,55,136,39,26,51,069,35*77
$GPGSV,3,2,12,31,40,052,35,48,40,208,36,09,28,304,29,28,11,061,26*7D
$GPGSV,3,3,12,06,09,307,,07,07,249,,01,04,214,,27,01,144,*79
$GLGSV,3,1,09,66,71,070,37,76,68,044,34,77,57,204,37,67,35,326,37*67
$GLGSV,3,2,09,65,27,125,32,75,12,032,35,87,06,330,,83,04,324,*69
$GLGSV,3,3,09,78,01,210,*51
$GNRMC,141913.000,A,3934.6302,N,10605.3108,W,0.02,6.87,070126,,,D*63
$GNGGA,141914.000,3934.6302,N,10605.3108,W,2,13,0.88,2771.2,M,-19.4,M,,*7B
$GPGSV,3,1,12,03,63,218,38,04,61,323,19,16,55,136,39,26,51,069,35*77
$GPGSV,3,2,12,31,40,052,35,48,40,208,35,09,28,304,28,28,11,061,25*7C
$GPGSV,3,3,12,06,09,307,,07,07,249,,01,04,214,,27,01,144,*79
$GLGSV,3,1,09,66,71,073,37,76,68,044,34,77,57,204,37,67,35,326,37*64
$GLGSV,3,2,09,65,27,125,32,75,12,032,35,87,06,330,,83,04,324,*69
$GLGSV,3,3,09,78,01,210,*51
$GNRMC,141914.000,A,3934.6302,N,10605.3108,W,0.02,6.87,070126,,,D*64
$GNGGA,141915.000,3934.6302,N,10605.3108,W,2,13,0.88,2771.2,M,-19.4,M,,*7A
$GPGSV,3,1,12,03,63,218,36,04,61,323,18,16,55,136,32,26,51,069,33*75
$GPGSV,3,2,12,31,40,052,33,48,40,208,33,09,28,304,27,28,11,061,24*72
$GPGSV,3,3,12,06,09,307,,07,07,249,,01,04,214,,27,01,144,*79
$GLGSV,3,1,09,66,71,073,35,76,68,044,32,77,57,204,35,67,36,326,30*66
$GLGSV,3,2,09,65,27,125,30,75,12,032,34,87,06,330,,83,04,324,*6A
$GLGSV,3,3,09,78,01,210,*51
$GNRMC,141915.000,A,3934.6302,N,10605.3108,W,0.06,6.87,070126,,,D*61
$GNGGA,141916.000,3934.6302,N,10605.3108,W,2,13,0.88,2771.3,M,-19.4,M,,*78
$GPGSV,3,1,12,03,63,218,37,04,61,323,19,16,55,136,40,26,51,069,34*77
$GPGSV,3,2,12,31,40,052,34,48,40,208,34,09,28,304,28,28,11,061,25*7C
$GPGSV,3,3,12,06,09,307,,07,07,249,,01,04,214,,27,01,144,*79
$GLGSV,3,1,09,66,71,073,36,76,68,044,33,77,57,204,36,67,36,326,37*60
$GLGSV,3,2,09,65,27,125,30,75,12,032,35,87,06,330,,83,04,324,*6B
$GLGSV,3,3,09,78,01,210,*51
$GNRMC,141916.000,A,3934.6302,N,10605.3108,W,0.24,6.87,070126,,,D*62
$GNGGA,141917.000,3934.6302,N,10605.3108,W,2,13,0.88,2771.4,M,-19.4,M,,*7E
$GPGSV,3,1,12,03,63,218,37,04,61,323,19,16,55,136,40,26,51,069,35*76
$GPGSV,3,2,12,31,40,052,34,48,40,208,35,09,28,304,28,28,11,061,25*7D
$GPGSV,3,3,12,06,09,307,,07,07,249,,01,04,214,,27,01,144,*79
$GLGSV,3,1,09,66,71,073,37,76,68,044,33,77,57,204,36,67,36,326,36*60
$GLGSV,3,2,09,65,27,125,31,75,12,032,35,87,06,330,,83,04,324,*6A
$GLGSV,3,3,09,78,01,210,*51
$GNRMC,141917.000,A,3934.6302,N,10605.3108,W,0.42,6.87,070126,,,D*63
$GNGGA,141918.000,3934.6303,N,10605.3108,W,2,13,0.88,2771.4,M,-19.4,M,,*70
$GPGSV,3,1,12,03,63,218,38,04,61,323,20,16,55,136,40,26,51,069,35*73
$GPGSV,3,2,12,31,40,052,35,48,40,208,36,09,28,304,29,28,11,061,26*7D
$GPGSV,3,3,12,06,09,307,,07,07,249,,01,04,214,,27,01,144,*79
$GLGSV,3,1,09,66,71,073,37,76,68,044,33,77,57,204,36,67,36,326,36*60
$GLGSV,3,2,09,65,27,125,32,75,12,032,35,87,06,330,,83,04,324,*69
$GLGSV,3,3,09,78,01,210,*51
$GNRMC,141918.000,A,3934.6303,N,10605.3108,W,0.34,6.87,070126,,,D*6C
$GNGGA,141919.000,3934.6304,N,10605.3108,W,2,13,0.88,2771.5,M,-19.4,M,,*77
$GPGSV,3,1,12,03,63,218,39,04,61,323,21,16,55,136,40,26,51,069,36*70
$GPGSV,3,2,12,31,40,052,36,48,40,208,37,09,28,304,30,28,11,061,27*76
$GPGSV,3,3,12,06,09,307,,07,07,249,,01,04,214,,27,01,144,*79
$GLGSV,3,1,09,66,71,073,37,76,68,044,33,77,57,204,36,67,36,326,36*60
$GLGSV,3,2,09,65,27,125,32,75,12,032,35,87,06,330,,83,04,324,*69
$GLGSV,3,3,09,78,01,210,*51
$GNRMC,141919.000,A,3934.6304,N,10605.3108,W,0.02,6.87,070126,,,D*6F
$GNGGA,141920.000,3934.6304,N,10605.3108,W,2,13,0.88,2771.5,M,-19.4,M,,*7D
