$GNGGA,235354.000,3935.7948,N,10602.0387,W,2,15,0.72,2822.5,M,-19.5,M,,*7C
$GPGSV,4,1,13,06,74,072,27,11,53,202,17,19,51,052,30,12,43,312,35*71
$GPGSV,4,2,13,48,40,208,28,24,37,250,35,22,30,123,27,17,30,067,21*77
$GPGSV,4,3,13,20,15,168,22,14,12,129,22,03,08,035,14,21,06,164,*77
$GPGSV,4,4,13,25,06,311,16*4E
$GLGSV,2,1,06,80,87,220,34,82,70,000,30,73,31,325,33,79,31,151,29*6E
$GLGSV,2,2,06,81,26,037,25,65,03,021,*6E
$GNRMC,235354.000,A,3935.7948,N,10602.0387,W,0.21,30.95,060126,,,D*59
$GNGGA,235355.000,3935.7948,N,10602.0387,W,2,15,0.72,2822.5,M,-19.5,M,,*7D
$GPGSV,4,1,13,06,74,072,27,11,53,202,16,19,51,052,30,12,43,312,35*70
$GPGSV,4,2,13,48,40,208,28,24,37,250,35,22,30,123,27,17,30,067,21*77
$GPGSV,4,3,13,20,15,168,22,14,12,129,22,03,08,035,13,21,06,164,*70
$GPGSV,4,4,13,25,06,311,16*4E
$GLGSV,2,1,06,80,87,220,35,82,70,000,30,73,31,325,33,79,31,151,29*6F
$GLGSV,2,2,06,81,26,037,25,65,03,021,*6E
$GNRMC,235355.000,A,3935.7948,N,10602.0387,W,0.03,30.95,060126,,,D*58
$GNGGA,235356.000,3935.7948,N,10602.0387,W,2,15,0.72,2822.5,M,-19.5,M,,*7E
$GPGSV,4,1,13,06,74,072,27,11,54,203,16,19,51,052,30,12,43,312,35*76
$GPGSV,4,2,13,48,40,208,28,24,37,250,34,22,30,123,26,17,30,067,21*77
$GPGSV,4,3,13,20,15,168,22,14,12,129,22,03,08,035,12,21,06,164,*71
$GPGSV,4,4,13,25,06,311,16*4E
$GLGSV,2,1,06,80,87,220,35,82,70,000,30,73,31,325,33,79,31,151,29*6F
$GLGSV,2,2,06,81,26,037,25,65,03,021,*6E
$GNRMC,235356.000,A,3935.7948,N,10602.0387,W,0.08,30.95,060126,,,D*50
$GNGGA,235357.000,3935.7948,N,10602.0387,W,2,15,0.72,2822.5,M,-19.5,M,,*7F
$GPGSV,4,1,13,06,74,072,27,11,54,203,16,19,51,052,30,12,44,312,35*71
$GPGSV,4,2,13,48,40,208,28,24,37,250,34,22,30,123,26,17,30,067,21*77
$GPGSV,4,3,13,20,15,168,22,14,12,129,22,03,08,035,15,21,06,164,*76
$GPGSV,4,4,13,25,06,311,16*4E
$GLGSV,2,1,06,80,87,220,35,82,70,000,30,73,31,325,33,79,31,151,29*6F
$GLGSV,2,2,06,81,26,037,25,65,03,021,*6E
$GNRMC,235357.000,A,3935.7948,N,10602.0387,W,0.04,30.95,060126,,,D*5D
$GNGGA,235358.000,3935.7948,N,10602.0388,W,2,14,0.76,2822.5,M,-19.5,M,,*7A
$GPGSV,4,1,13,06,74,072,26,11,54,203,17,19,51,052,30,12,44,312,35*71
$GPGSV,4,2,13,48,40,208,28,24,37,250,34,22,30,123,26,17,30,067,21*77
$GPGSV,4,3,13,20,15,168,22,14,12,129,22,03,08,035,12,21,06,164,*71
$GPGSV,4,4,13,25,06,311,16*4E
$GLGSV,2,1,06,80,87,220,35,82,70,000,30,73,31,325,33,79,31,151,30*67
$GLGSV,2,2,06,81,26,037,25,65,03,021,*6E
$GNRMC,235358.000,A,3935.7948,N,10602.0388,W,0.22,30.95,060126,,,D*59
$GNGGA,235359.000,3935.7948,N,10602.0388,W,2,14,0.76,2822.5,M,-19.5,M,,*7B
$GPGSV,4,1,13,06,74,072,26,11,54,203,17,19,51,052,30,12,44,312,35*71
$GPGSV,4,2,13,48,40,208,28,24,37,250,34,22,30,123,26,17,30,067,21*77
$GPGSV,4,3,13,20,15,168,22,14,12,129,21,03,08,035,12,21,06,164,*72
$GPGSV,4,4,13,25,06,311,16*4E
$GLGSV,2,1,06,80,87,220,35,82,70,000,30,73,31,325,34,79,31,151,30*60
$GLGSV,2,2,06,81,26,037,26,65,03,021,*6D
$GNRMC,235359.000,A,3935.7948,N,10602.0388,W,0.34,30.95,060126,,,D*5F
$GNGGA,235400.000,3935.7947,N,10602.0388,W,2,14,0.76,2822.5,M,-19.5,M,,*7F
$GPGSV,4,1,13,06,74,072,26,11,54,203,17,19,51,052,31,12,44,312,35*70
$GPGSV,4,2,13,48,40,208,28,24,37,250,35,22,30,123,26,17,30,067,21*76
$GPGSV,4,3,13,20,15,168,22,14,12,129,21,03,08,035,10,21,06,164,*70
$GPGSV,4,4,13,25,06,311,16*4E
$GLGSV,2,1,06,80,87,220,35,82,70,000,31,73,31,325,34,79,31,151,30*61
$GLGSV,2,2,06,81,26,037,26,65,03,021,*6D
$GNRMC,235400.000,A,3935.7947,N,10602.0388,W,0.13,30.95,060126,,,D*5E
$GNGGA,235401.000,3935.7947,N,10602.0388,W,2,14,0.76,2822.5,M,-19.5,M,,*7E
$GPGSV,4,1,13,06,74,072,26,11,54,203,17,19,51,052,31,12,44,312,35*70
$GPGSV,4,2,13,48,40,208,28,24,37,250,35,22,30,123,26,17,30,067,21*76
$GPGSV,4,3,13,20,15,168,22,14,12,129,21,03,08,035,,21,06,164,*71
$GPGSV,4,4,13,25,06,311,16*4E
$GLGSV,2,1,06,80,87,220,35,82,70,000,31,73,31,325,34,79,31,151,30*61
$GLGSV,2,2,06,81,26,037,26,65,03,021,*6D
$GNRMC,235401.000,A,3935.7947,N,10602.0388,W,0.07,30.95,060126,,,D*5A
$GNGGA,235402.000,3935.7948,N,10602.0388,W,2,14,0.76,2822.5,M,-19.5,M,,*72
$GPGSV,4,1,13,06,74,072,26,11,54,203,17,19,51,052,31,12,44,312,35*70
$GPGSV,4,2,13,48,40,208,28,24,37,250,35,22,30,123,26,17,30,067,21*76
$GPGSV,4,3,13,20,15,168,22,14,12,129,21,03,08,035,,21,06,164,*71
$GPGSV,4,4,13,25,06,311,16*4E
$GLGSV,2,1,06,80,87,220,35,82,70,000,31,73,31,325,34,79,31,151,30*61
$GLGSV,2,2,06,81,26,037,26,65,03,021,*6D
$GNRMC,235402.000,A,3935.7948,N,10602.0388,W,0.10,30.95,060126,,,D*50
$GNGGA,235403.000,3935.7947,N,10602.0388,W,2,14,0.76,2822.5,M,-19.5,M,,*7C
$GPGSV,4,1,13,06,74,072,26,11,54,203,17,19,51,052,31,12,44,312,35*70
$GPGSV,4,2,13,48,40,208,27,24,37,250,35,22,30,123,26,17,30,067,21*79
$GPGSV,4,3,13,20,15,168,22,14,12,129,21,03,08,035,,21,06,164,*71
$GPGSV,4,4,13,25,06,311,16*4E
$GLGSV,2,1,06,80,87,220,35,82,70,000,31,73,31,325,33,79,31,151,30*66
$GLGSV,2,2,06,81,26,037,26,65,03,021,*6D
$GNRMC,235403.000,A,3935.7947,N,10602.0388,W,0.17,30.95,060126,,,D*59
$GNGGA,235404.000,3935.7947,N,10602.0389,W,2,14,0.76,2822.5,M,-19.5,M,,*7A
$GPGSV,4,1,13,06,74,072,26,11,54,203,17,19,50,053,31,12,44,312,33*76
$GPGSV,4,2,13,48,40,208,27,24,37,250,35,22,30,123,26,17,30,067,21*79
$GPGSV,4,3,13,20,15,168,22,14,12,129,21,03,08,035,,21,06,164,*71
$GPGSV,4,4,13,25,06,311,16*4E
$GLGSV,2,1,06,80,87,220,36,82,70,000,31,73,31,325,34,79,31,151,30*62
$GLGSV,2,2,06,81,26,037,25,65,03,021,*6E
$GNRMC,235404.000,A,3935.7947,N,10602.0389,W,0.22,30.95,060126,,,D*59
$GNGGA,235405.000,3935.7947,N,10602.0389,W,2,14,0.76,2822.6,M,-19.5,M,,*78
$GPGSV,4,1,13,06,74,072,17,11,54,203,29,19,50,053,30,12,44,312,32*79
$GPGSV,4,2,13,48,40,208,26,24,37,250,36,22,30,123,27,17,30,067,32*78
$GPGSV,4,3,13,20,16,167,21,14,12,129,22,03,08,035,,21,06,164,*7D
$GPGSV,4,4,13,25,06,311,16*4E
$GLGSV,2,1,06,80,87,220,35,82,70,000,33,73,31,325,34,79,31,151,19*68
$GLGSV,2,2,06,81,26,037,24,65,03,021,*6F
$GNRMC,235405.000,A,3935.7947,N,10602.0389,W,0.17,30.95,060126,,,D*5E
$GNGGA,235406.000,3935.7947,N,10602.0389,W,2,14,0.76,2822.6,M,-19.5,M,,*7B
$GPGSV,4,1,13,06,74,072,16,11,54,203,30,19,50,053,31,12,44,312,32*71
$GPGSV,4,2,13,48,40,208,26,24,37,250,36,22,30,123,28,17,30,067,32*77
$GPGSV,4,3,13,20,16,167,21,14,12,129,22,03,08,035,,21,07,164,*7C
$GPGSV,4,4,13,25,06,311,16*4E
$GLGSV,2,1,06,80,87,220,26,82,70,000,32,73,31,325,34,79,31,151,18*6A
$GLGSV,2,2,06,81,26,037,23,65,03,021,*68
$GNRMC,235406.000,A,3935.7947,N,10602.0389,W,0.11,30.95,060126,,,D*5B
$GNGGA,235407.000,3935.7948,N,10602.0388,W,2,14,0.76,2822.6,M,-19.5,M,,*74
$GPGSV,4,1,13,06,74,072,16,11,54,203,30,19,50,053,31,12,44,312,31*72
$GPGSV,4,2,13,48,40,208,26,24,37,250,37,22,30,124,28,17,30,067,32*71
$GPGSV,4,3,13,20,16,167,21,14,12,129,22,03,08,035,,21,07,164,*7C
$GPGSV,4,4,13,25,06,311,16*4E
$GLGSV,2,1,06,80,87,220,28,82,70,000,33,73,31,325,34,79,31,151,17*6A
$GLGSV,2,2,06,81,26,037,23,65,03,021,*68
$GNRMC,235407.000,A,3935.7948,N,10602.0388,W,0.08,30.95,060126,,,D*5C
$GNGGA,235408.000,3935.7948,N,10602.0388,W,2,14,0.76,2822.7,M,-19.5,M,,*7A
$GPGSV,4,1,13,06,74,072,17,11,54,203,30,19,50,053,31,12,44,312,32*70
$GPGSV,4,2,13,48,40,208,25,24,37,250,37,22,30,124,29,17,30,067,32*73
$GPGSV,4,3,13,20,16,167,21,14,12,129,23,03,08,035,,21,07,164,*7D
$GPGSV,4,4,13,25,06,311,16*4E
$GLGSV,2,1,06,80,87,220,29,82,70,000,32,73,31,325,34,79,31,151,16*6B
$GLGSV,2,2,06,81,26,037,23,65,03,021,*68
$GNRMC,235408.000,A,3935.7948,N,10602.0388,W,0.06,30.95,060126,,,D*5D
$GNGGA,235409.000,3935.7947,N,10602.0388,W,2,14,0.76,2822.7,M,-19.5,M,,*74
$GPGSV,4,1,13,06,74,072,20,11,54,203,21,19,50,053,31,12,44,312,33*75
$GPGSV,4,2,13,48,40,208,26,24,36,249,36,22,30,124,27,17,30,067,21*74
$GPGSV,4,3,13,20,16,167,22,14,12,129,23,03,08,035,,21,07,164,*7E
$GPGSV,4,4,13,25,06,311,16*4E
$GLGSV,2,1,06,80,87,220,38,82,70,000,32,73,31,325,35,79,31,151,17*6B
$GLGSV,2,2,06,81,26,037,23,65,03,021,*68
$GNRMC,235409.000,A,3935.7947,N,10602.0388,W,0.24,30.95,060126,,,D*53
$GNGGA,235410.000,3935.7947,N,10602.0388,W,2,14,0.76,2822.7,M,-19.5,M,,*7C
$GPGSV,4,1,13,06,74,072,21,11,54,203,20,19,50,053,31,12,44,312,34*72
$GPGSV,4,2,13,48,40,208,27,24,36,249,36,22,30,124,20,17,30,067,17*77
$GPGSV,4,3,13,20,16,167,23,14,12,129,23,03,08,035,,21,07,164,*7F
$GPGSV,4,4,13,25,07,311,16*4F
$GLGSV,2,1,06,80,87,220,38,82,70,000,32,73,31,325,35,79,31,151,19*65
$GLGSV,2,2,06,81,26,037,22,65,03,021,*69
$GNRMC,235410.000,A,3935.7947,N,10602.0388,W,0.15,30.95,060126,,,D*59
$GNGGA,235411.000,3935.7947,N,10602.0389,W,2,14,0.76,2822.7,M,-19.5,M,,*7C
$GPGSV,4,1,13,06,74,072,22,11,54,203,19,19,50,053,31,12,44,312,35*7A
$GPGSV,4,2,13,48,40,208,28,24,36,249,36,22,30,124,21,17,30,067,18*76
$GPGSV,4,3,13,20,16,167,24,14,12,129,23,03,08,035,,21,07,164,*78
$GPGSV,4,4,13,25,07,311,16*4F
$GLGSV,2,1,06,80,87,220,38,82,70,000,32,73,31,325,35,79,31,151,27*68
$GLGSV,2,2,06,81,26,037,22,65,03,021,*69
$GNRMC,235411.000,A,3935.7947,N,10602.0389,W,0.07,30.95,060126,,,D*5A
$GNGGA,235412.000,3935.7948,N,10602.0388,W,2,14,0.76,2822.7,M,-19.5,M,,*71
$GPGSV,4,1,13,06,74,072,22,11,54,203,18,19,50,053,31,12,44,312,35*7B
$GPGSV,4,2,13,48,40,208,29,24,36,249,36,22,30,124,21,17,30,067,18*77
$GPGSV,4,3,13,20,16,167,25,14,12,129,23,03,08,035,,21,07,164,*79
$GPGSV,4,4,13,25,07,311,16*4F
$GLGSV,2,1,06,80,87,220,38,82,70,000,31,73,31,325,35,79,31,151,27*6B
$GLGSV,2,2,06,81,26,037,22,65,03,021,*69
$GNRMC,235412.000,A,3935.7948,N,10602.0388,W,0.22,30.95,060126,,,D*50
$GNGGA,235413.000,3935.7948,N,10602.0388,W,2,14,0.76,2822.7,M,-19.5,M,,*70
$GPGSV,4,1,13,06,74,072,23,11,54,203,18,19,50,053,31,12,44,312,35*7A
$GPGSV,4,2,13,48,40,208,29,24,36,249,36,22,30,124,20,17,30,067,17*79
$GPGSV,4,3,13,20,16,167,25,14,12,129,23,03,08,035,,21,07,164,*79
$GPGSV,4,4,13,25,07,311,16*4F
$GLGSV,2,1,06,80,87,220,38,82,70,000,31,73,31,325,35,79,31,151,27*6B
$GLGSV,2,2,06,81,26,037,23,65,03,021,*68
$GNRMC,235413.000,A,3935.7948,N,10602.0388,W,0.25,30.95,060126,,,D*56
$GNGGA,235414.000,3935.7948,N,10602.0388,W,2,14,0.76,2822.7,M,-19.5,M,,*77
$GPGSV,4,1,13,06,74,072,23,11,54,203,18,19,50,053,31,12,44,312,35*7A
$GPGSV,4,2,13,48,40,208,29,24,36,249,36,22,30,124,20,17,30,067,17*79
$GPGSV,4,3,13,20,16,167,25,14,12,129,23,03,08,035,,21,07,164,*79
$GPGSV,4,4,13,25,07,311,16*4F
$GLGSV,2,1,06,80,87,220,38,82,70,000,31,73,31,325,35,79,31,151,26*6A
$GLGSV,2,2,06,81,26,037,23,65,03,021,*68
$GNRMC,235414.000,A,3935.7948,N,10602.0388,W,0.03,30.95,060126,,,D*55
$GNGGA,235415.000,3935.7948,N,10602.0388,W,2,14,0.76,2822.6,M,-19.5,M,,*77
$GPGSV,4,1,13,06,74,072,22,11,54,203,30,19,50,053,31,12,44,312,35*71
$GPGSV,4,2,13,48,40,208,28,24,36,249,36,22,30,124,34,17,30,067,30*78
$GPGSV,4,3,13,20,16,167,24,14,12,129,22,03,08,035,,21,07,164,*79
$GPGSV,4,4,13,25,07,311,16*4F
$GLGSV,2,1,06,80,87,220,31,82,70,000,32,73,31,325,34,79,31,151,24*63
$GLGSV,2,2,06,81,26,037,21,65,03,021,*6A
$GNRMC,235415.000,A,3935.7948,N,10602.0388,W,0.04,30.95,060126,,,D*53
$GNGGA,235416.000,3935.7948,N,10602.0388,W,2,14,0.76,2822.6,M,-19.5,M,,*74
$GPGSV,4,1,13,06,74,072,21,11,54,203,30,19,50,053,30,12,44,312,35*73
$GPGSV,4,2,13,48,40,208,27,24,36,249,36,22,30,124,33,17,30,067,30*70
$GPGSV,4,3,13,20,16,167,24,14,12,129,21,03,08,035,,21,07,164,*7A
$GPGSV,4,4,13,25,07,311,16*4F
$GLGSV,2,1,06,80,87,220,32,82,70,000,33,73,31,325,35,79,31,151,22*66
$GLGSV,2,2,06,81,26,037,21,65,03,021,*6A
$GNRMC,235416.000,A,3935.7948,N,10602.0388,W,0.21,30.95,060126,,,D*57
$GNGGA,235417.000,3935.7948,N,10602.0387,W,2,14,0.76,2822.6,M,-19.5,M,,*7A
$GPGSV,4,1,13,06,74,072,19,11,54,203,29,19,50,053,29,12,44,312,35*78
$GPGSV,4,2,13,48,40,208,26,24,36,249,36,22,30,124,32,17,30,067,30*70
$GPGSV,4,3,13,20,16,167,24,14,12,129,20,03,08,035,,21,07,164,*7B
$GPGSV,4,4,13,25,07,311,16*4F
$GLGSV,2,1,06,80,87,220,31,82,70,000,32,73,31,325,34,79,31,151,21*66
$GLGSV,2,2,06,81,26,037,21,65,03,021,*6A
$GNRMC,235417.000,A,3935.7948,N,10602.0387,W,0.12,30.95,060126,,,D*59
$GNGGA,235418.000,3935.7948,N,10602.0387,W,2,14,0.76,2822.6,M,-19.5,M,,*75
$GPGSV,4,1,13,06,74,072,14,11,54,203,28,19,50,053,29,12,44,312,35*74
$GPGSV,4,2,13,48,40,208,26,24,36,249,36,22,30,124,31,17,30,067,30*73
$GPGSV,4,3,13,20,16,167,23,14,12,129,19,03,08,035,13,21,07,164,*74
$GPGSV,4,4,13,25,07,311,15*4C
$GLGSV,2,1,06,80,87,220,30,82,70,000,31,73,31,325,34,79,31,151,21*64
$GLGSV,2,2,06,81,26,037,21,65,03,021,*6A
$GNRMC,235418.000,A,3935.7948,N,10602.0387,W,0.37,30.95,060126,,,D*51
$GNGGA,235419.000,3935.7949,N,10602.0387,W,2,14,0.76,2822.6,M,-19.5,M,,*75
$GPGSV,4,1,13,06,74,072,14,11,54,203,19,19,50,053,29,12,44,312,35*76
$GPGSV,4,2,13,48,40,208,27,24,36,249,36,22,30,124,24,17,30,067,19*7D
$GPGSV,4,3,13,20,16,167,23,14,12,129,19,03,08,035,14,21,07,164,*73
$GPGSV,4,4,13,25,07,311,15*4C
$GLGSV,2,1,06,80,87,220,32,82,70,000,31,73,31,325,34,79,31,151,21*66
$GLGSV,2,2,06,81,26,037,20,65,03,021,*6B
$GNRMC,235419.000,A,3935.7949,N,10602.0387,W,0.26,30.95,060126,,,D*51
$GNGGA,235420.000,3935.7949,N,10602.0387,W,2,14,0.73,2822.6,M,-19.5,M,,*7A
$GPGSV,4,1,13,06,74,072,,11,54,203,19,19,50,053,29,12,44,312,36*70
$GPGSV,4,2,13,48,40,208,28,24,36,249,36,22,30,124,24,17,30,067,19*72
$GPGSV,4,3,13,20,16,167,23,14,12,129,20,03,08,035,15,21,07,164,*78
$GPGSV,4,4,13,25,07,311,15*4C
$GLGSV,2,1,06,80,87,220,33,82,70,000,31,73,31,325,34,79,31,151,22*64
$GLGSV,2,2,06,81,26,037,20,65,03,021,*6B
$GNRMC,235420.000,A,3935.7949,N,10602.0387,W,0.06,30.95,060126,,,D*59
$GNGGA,235421.000,3935.7949,N,10602.0387,W,2,14,0.73,2822.6,M,-19.5,M,,*7B
$GPGSV,4,1,13,06,74,072,,11,54,203,20,19,50,053,29,12,44,312,36*7A
$GPGSV,4,2,13,48,40,208,29,24,36,249,36,22,30,124,23,17,30,067,19*74
$GPGSV,4,3,13,20,16,167,23,14,12,129,22,03,08,035,15,21,07,164,*7A
$GPGSV,4,4,13,25,07,311,15*4C
$GLGSV,2,1,06,80,87,220,35,82,70,000,31,73,31,325,34,79,31,151,23*63
$GLGSV,2,2,06,81,26,037,20,65,03,021,*6B
$GNRMC,235421.000,A,3935.7949,N,10602.0387,W,0.12,30.95,060126,,,D*5D
$GNGGA,235422.000,3935.7949,N,10602.0387,W,2,14,0.73,2822.6,M,-19.5,M,,*78
$GPGSV,4,1,13,06,74,072,,11,54,203,20,19,50,053,30,12,44,312,36*72
$GPGSV,4,2,13,48,40,208,29,24,36,249,36,22,30,124,23,17,30,067,18*75
$GPGSV,4,3,13,20,16,167,23,14,12,129,23,03,08,035,15,21,07,164,*7B
$GPGSV,4,4,13,25,07,311,15*4C
$GLGSV,2,1,06,80,87,220,35,82,70,000,30,73,31,325,34,79,31,151,23*62
$GLGSV,2,2,06,81,26,037,21,65,03,021,*6A
$GNRMC,235422.000,A,3935.7949,N,10602.0387,W,0.25,30.95,060126,,,D*5A
$GNGGA,235423.000,3935.7948,N,10602.0387,W,2,14,0.73,2822.7,M,-19.5,M,,*79
$GPGSV,4,1,13,06,74,072,25,11,54,203,21,19,50,053,32,12,44,312,35*75
$GPGSV,4,2,13,48,40,208,29,24,36,249,36,22,30,124,22,17,30,067,19*75
$GPGSV,4,3,13,20,16,167,23,14,12,129,24,03,08,035,15,21,07,164,*7C
$GPGSV,4,4,13,25,07,311,16*4F
$GLGSV,2,1,06,80,87,220,36,82,70,000,29,73,31,325,35,79,31,151,22*69
$GLGSV,2,2,06,81,26,037,22,65,03,021,*69
$GNRMC,235423.000,A,3935.7948,N,10602.0387,W,0.18,30.95,060126,,,D*54
$GNGGA,235424.000,3935.7948,N,10602.0387,W,2,15,0.72,2822.7,M,-19.5,M,,*7E
$GPGSV,4,1,13,06,74,072,21,11,54,203,35,19,50,053,32,12,44,312,34*75
$GPGSV,4,2,13,48,40,208,28,24,36,249,37,22,30,124,33,17,30,067,19*75
$GPGSV,4,3,13,20,16,167,24,14,12,129,22,03,08,035,14,21,07,164,*7C
$GPGSV,4,4,13,25,07,311,15*4C
$GLGSV,2,1,06,80,87,220,38,82,70,000,36,73,31,325,34,79,31,151,22*68
$GLGSV,2,2,06,81,26,037,22,65,03,021,*69
$GNRMC,235424.000,A,3935.7948,N,10602.0387,W,0.22,30.95,060126,,,D*5A
$GNGGA,235425.000,3935.7949,N,10602.0387,W,2,15,0.72,2822.7,M,-19.5,M,,*7E
$GPGSV,4,1,13,06,74,072,24,11,54,203,28,19,50,053,23,12,44,312,36*7E
$GPGSV,4,2,13,48,40,208,28,24,36,249,38,22,30,124,34,17,30,067,18*7C
$GPGSV,4,3,13,20,16,167,25,14,12,129,21,03,08,035,13,21,07,164,*79
$GPGSV,4,4,13,25,07,311,15*4C
$GLGSV,2,1,06,80,87,220,39,82,70,000,34,73,31,325,36,79,31,151,33*69
$GLGSV,2,2,06,81,26,037,21,65,03,021,*6A
$GNRMC,235425.000,A,3935.7949,N,10602.0387,W,0.42,30.95,060126,,,D*5C
$GNGGA,235426.000,3935.7949,N,10602.0386,W,2,15,0.72,2822.7,M,-19.5,M,,*7C
$GPGSV,4,1,13,06,74,072,29,11,54,203,30,19,50,053,25,12,44,312,36*7C
$GPGSV,4,2,13,48,40,208,29,24,36,249,38,22,30,124,32,17,30,067,19*7A
$GPGSV,4,3,13,20,16,167,23,14,12,129,28,03,08,035,16,21,07,164,*73
$GPGSV,4,4,13,25,07,311,16*4F
$GLGSV,2,1,06,80,87,220,39,82,70,000,33,73,31,325,37,79,31,151,31*6D
$GLGSV,2,2,06,81,26,037,20,65,03,021,*6B
$GNRMC,235426.000,A,3935.7949,N,10602.0386,W,0.14,30.95,060126,,,D*5D
$GNGGA,235427.000,3935.7949,N,10602.0386,W,2,14,0.73,2822.7,M,-19.5,M,,*7D
$GPGSV,4,1,13,06,74,072,25,11,54,203,30,19,50,053,25,12,44,312,36*70
$GPGSV,4,2,13,48,40,208,30,24,36,249,38,22,30,124,31,17,30,067,28*73
$GPGSV,4,3,13,20,16,167,23,14,12,129,28,03,08,035,18,21,07,164,*7D
$GPGSV,4,4,13,25,07,311,17*4E
$GLGSV,2,1,06,80,87,220,39,82,70,000,32,73,31,325,37,79,31,151,30*6D
$GLGSV,2,2,06,81,26,037,28,65,03,021,*63
$GNRMC,235427.000,A,3935.7949,N,10602.0386,W,0.12,30.95,060126,,,D*5A
$GNGGA,235428.000,3935.7949,N,10602.0386,W,2,15,0.72,2822.6,M,-19.5,M,,*73
$GPGSV,4,1,13,06,74,072,24,11,54,203,30,19,50,053,27,12,44,312,36*73
$GPGSV,4,2,13,48,40,208,30,24,36,249,37,22,30,124,20,17,30,067,28*7C
$GPGSV,4,3,13,20,16,167,23,14,12,129,28,03,08,035,16,21,07,164,*73
$GPGSV,4,4,13,25,07,311,17*4E
$GLGSV,2,1,06,80,87,220,38,82,70,000,33,73,31,325,38,79,31,151,28*6B
$GLGSV,2,2,06,81,26,037,28,65,03,021,*63
$GNRMC,235428.000,A,3935.7949,N,10602.0386,W,0.14,30.95,060126,,,D*53
$GNGGA,235429.000,3935.7949,N,10602.0386,W,2,14,0.73,2822.6,M,-19.5,M,,*72
$GPGSV,4,1,13,06,74,072,20,11,54,203,32,19,50,053,29,12,44,312,35*78
$GPGSV,4,2,13,48,40,208,29,24,36,249,35,22,30,124,19,17,30,067,27*73
$GPGSV,4,3,13,20,16,167,21,14,12,129,19,03,08,035,17,21,07,164,*72
$GPGSV,4,4,13,25,07,311,17*4E
$GLGSV,2,1,06,80,87,220,36,82,70,000,33,73,31,325,38,79,31,151,30*6C
$GLGSV,2,2,06,81,26,037,20,65,03,021,*6B
$GNRMC,235429.000,A,3935.7949,N,10602.0386,W,0.22,30.95,060126,,,D*57
$GNGGA,235430.000,3935.7949,N,10602.0386,W,2,15,0.72,2822.6,M,-19.5,M,,*7A
$GPGSV,4,1,13,06,74,072,21,11,54,203,32,19,50,053,30,12,44,312,36*72
$GPGSV,4,2,13,48,40,208,31,24,36,249,37,22,30,124,20,17,30,067,25*70
$GPGSV,4,3,13,20,16,167,21,14,12,129,33,03,08,035,17,21,07,164,*7A
$GPGSV,4,4,13,25,07,311,18*41
$GLGSV,2,1,06,80,87,220,37,82,70,000,34,73,31,325,38,79,31,151,31*6B
$GLGSV,2,2,06,81,26,037,21,65,03,021,*6A
$GNRMC,235430.000,A,3935.7949,N,10602.0386,W,0.17,30.95,060126,,,D*59
$GNGGA,235431.000,3935.7949,N,10602.0385,W,2,15,0.72,2822.6,M,-19.5,M,,*78
$GPGSV,4,1,13,06,74,072,23,11,54,203,33,19,50,053,31,12,44,312,37*71
$GPGSV,4,2,13,48,40,208,32,24,36,249,38,22,30,124,20,17,30,067,23*7A
$GPGSV,4,3,13,20,16,167,22,14,12,129,33,03,08,035,18,21,07,164,*76
$GPGSV,4,4,13,25,07,311,18*41
$GLGSV,2,1,06,80,87,220,38,82,70,000,35,73,31,325,38,79,31,151,31*65
$GLGSV,2,2,06,81,26,037,22,65,03,021,*69
$GNRMC,235431.000,A,3935.7949,N,10602.0385,W,0.12,30.95,060126,,,D*5E
$GNGGA,235432.000,3935.7949,N,10602.0385,W,2,15,0.72,2822.6,M,-19.5,M,,*7B
$GPGSV,4,1,13,06,74,072,24,11,54,203,34,19,50,053,33,12,44,312,37*73
$GPGSV,4,2,13,48,40,208,33,24,36,249,38,22,30,124,31,17,30,067,22*7A
$GPGSV,4,3,13,20,16,167,29,14,12,129,33,03,08,035,18,21,07,164,*7D
$GPGSV,4,4,13,25,07,311,18*41
$GLGSV,2,1,06,80,87,220,38,82,70,000,34,73,31,325,38,79,31,151,33*66
$GLGSV,2,2,06,81,26,037,21,65,03,021,*6A
$GNRMC,235432.000,A,3935.7949,N,10602.0385,W,0.14,30.95,060126,,,D*5B
$GNGGA,235433.000,3935.7949,N,10602.0385,W,2,15,0.72,2822.7,M,-19.5,M,,*7B
$GPGSV,4,1,13,06,74,072,24,11,54,203,34,19,50,053,41,12,44,312,35*74
$GPGSV,4,2,13,48,40,208,32,24,36,249,38,22,30,124,32,17,30,067,20*7A
$GPGSV,4,3,13,20,16,167,29,14,12,129,26,03,08,035,19,21,07,164,*78
$GPGSV,4,4,13,25,07,311,18*41
$GLGSV,2,1,06,80,87,220,30,82,70,000,34,73,31,325,38,79,31,151,34*69
$GLGSV,2,2,06,81,26,037,21,65,03,021,*6A
$GNRMC,235433.000,A,3935.7949,N,10602.0385,W,0.34,30.95,060126,,,D*58
$GNGGA,235434.000,3935.7949,N,10602.0384,W,2,15,0.72,2822.8,M,-19.5,M,,*72
$GPGSV,4,1,13,06,74,072,24,11,54,203,34,19,50,053,34,12,44,312,35*76
$GPGSV,4,2,13,48,40,208,31,24,36,249,38,22,30,124,31,17,30,067,20*7A
$GPGSV,4,3,13,20,16,167,28,14,12,129,27,03,08,035,20,21,07,164,*72
$GPGSV,4,4,13,25,07,311,18*41
$GLGSV,2,1,06,80,87,220,32,82,70,000,35,73,31,325,38,79,31,151,36*68
$GLGSV,2,2,06,81,26,037,21,65,03,021,*6A
$GNRMC,235434.000,A,3935.7949,N,10602.0384,W,0.06,30.95,060126,,,D*5F
$GNGGA,235435.000,3935.7949,N,10602.0383,W,2,15,0.72,2822.8,M,-19.5,M,,*74
$GPGSV,4,1,13,06,74,072,34,11,54,203,35,19,50,053,34,12,44,312,34*77
$GPGSV,4,2,13,48,40,208,31,24,36,249,36,22,30,124,29,17,30,067,22*7F
$GPGSV,4,3,13,20,16,167,27,14,12,129,27,03,08,035,19,21,07,164,*77
$GPGSV,4,4,13,25,07,311,17*4E
$GLGSV,2,1,06,80,87,220,32,82,70,000,34,73,31,325,38,79,31,151,34*6B
$GLGSV,2,2,06,81,26,037,23,65,03,021,*68
$GNRMC,235435.000,A,3935.7949,N,10602.0383,W,0.22,30.95,060126,,,D*5F
$GNGGA,235436.000,3935.7948,N,10602.0383,W,2,15,0.72,2822.8,M,-19.5,M,,*76
$GPGSV,4,1,13,06,74,072,34,11,54,203,34,19,50,053,32,12,44,312,35*71
$GPGSV,4,2,13,48,40,208,32,24,36,249,35,22,30,124,29,17,30,067,30*7C
$GPGSV,4,3,13,20,16,167,27,14,12,129,25,03,08,035,18,21,07,164,*74
$GPGSV,4,4,13,25,07,311,17*4E
$GLGSV,2,1,06,80,87,220,32,82,70,000,35,73,31,325,37,79,31,151,36*67
$GLGSV,2,2,06,81,26,037,24,65,03,021,*6F
$GNRMC,235436.000,A,3935.7948,N,10602.0383,W,0.24,30.95,060126,,,D*5B
$GNGGA,235437.000,3935.7949,N,10602.0384,W,2,15,0.72,2822.7,M,-19.5,M,,*7E
$GPGSV,4,1,13,06,74,072,27,11,54,203,24,19,50,053,34,12,44,312,34*75
$GPGSV,4,2,13,48,40,208,30,24,36,249,33,22,30,124,30,17,30,067,30*70
$GPGSV,4,3,13,20,16,167,25,14,12,129,25,03,08,035,18,21,07,164,*76
$GPGSV,4,4,13,25,07,311,17*4E
$GLGSV,2,1,06,80,87,220,32,82,70,000,35,73,31,325,27,79,31,151,28*69
$GLGSV,2,2,06,81,26,037,25,65,03,021,*6E
$GNRMC,235437.000,A,3935.7949,N,10602.0384,W,0.48,30.95,060126,,,D*56
$GNGGA,235438.000,3935.7947,N,10602.0385,W,2,15,0.72,2822.7,M,-19.5,M,,*7E
$GPGSV,4,1,13,06,74,072,27,11,54,203,25,19,50,053,22,12,44,312,24*72
$GPGSV,4,2,13,48,40,208,28,24,36,249,22,22,30,124,23,17,30,067,30*7B
$GPGSV,4,3,13,20,16,167,24,14,12,129,24,03,08,035,19,21,07,164,*77
$GPGSV,4,4,13,25,07,311,16*4F
$GLGSV,2,1,06,80,87,220,30,82,70,000,25,73,31,325,27,79,31,151,27*65
$GLGSV,2,2,06,81,26,037,26,65,03,021,*6D
$GNRMC,235438.000,A,3935.7947,N,10602.0385,W,0.65,185.92,060126,,,D*61
$GNGGA,235439.000,3935.7945,N,10602.0384,W,2,15,0.72,2822.7,M,-19.5,M,,*7C
$GPGSV,4,1,13,06,74,072,28,11,54,203,33,19,50,053,24,12,44,312,24*7C
$GPGSV,4,2,13,48,40,208,28,24,36,249,23,22,30,124,30,17,30,067,29*70
$GPGSV,4,3,13,20,16,167,22,14,12,129,24,03,08,035,19,21,07,164,*71
$GPGSV,4,4,13,25,07,311,15*4C
$GLGSV,2,1,06,80,87,220,31,82,70,000,26,73,31,325,20,79,31,151,27*60
$GLGSV,2,2,06,81,26,037,34,65,03,021,*6E
$GNRMC,235439.000,A,3935.7945,N,10602.0384,W,0.58,185.92,060126,,,D*6D
$GNGGA,235440.000,3935.7944,N,10602.0382,W,2,15,0.72,2822.7,M,-19.5,M,,*75
$GPGSV,4,1,13,06,74,072,32,11,54,203,33,19,50,053,35,12,44,312,36*74
$GPGSV,4,2,13,48,40,208,29,24,36,249,34,22,30,124,31,17,30,067,29*76
$GPGSV,4,3,13,20,16,167,21,14,12,129,26,03,08,035,21,21,07,164,*7B
$GPGSV,4,4,13,25,07,311,14*4D
$GLGSV,2,1,06,80,87,220,33,82,70,000,27,73,31,325,22,79,31,151,25*63
$GLGSV,2,2,06,81,26,037,33,65,03,021,*69
$GNRMC,235440.000,A,3935.7944,N,10602.0382,W,0.56,185.92,060126,,,D*6A
$GNGGA,235441.000,3935.7943,N,10602.0382,W,2,15,0.72,2822.8,M,-19.5,M,,*7C
$GPGSV,4,1,13,06,74,072,33,11,54,203,35,19,50,053,22,12,44,312,39*7A
$GPGSV,4,2,13,48,40,208,31,24,36,249,35,22,30,124,31,17,30,067,22*75
$GPGSV,4,3,13,20,16,167,21,14,12,129,25,03,08,035,20,21,07,164,*79
$GPGSV,4,4,13,25,07,311,13*4A
$GLGSV,2,1,06,80,87,220,35,82,70,000,34,73,31,325,32,79,31,151,39*6B
$GLGSV,2,2,06,81,26,037,26,65,03,021,*6D
$GNRMC,235441.000,A,3935.7943,N,10602.0382,W,1.46,259.47,060126,,,D*66
$GNGGA,235442.000,3935.7943,N,10602.0388,W,2,15,0.72,2822.5,M,-19.5,M,,*78
$GPGSV,4,1,13,06,74,072,31,11,54,203,25,19,50,053,24,12,44,312,33*75
$GPGSV,4,2,13,48,40,208,30,24,36,249,20,22,30,124,24,17,30,067,24*72
$GPGSV,4,3,13,20,16,167,22,14,12,129,23,03,08,035,20,21,07,164,*7C
$GPGSV,4,4,13,25,07,311,12*4B
$GLGSV,2,1,06,80,87,220,36,82,70,000,34,73,31,325,31,79,31,151,29*6A
$GLGSV,2,2,06,81,26,037,26,65,03,021,*6D
$GNRMC,235442.000,A,3935.7943,N,10602.0388,W,1.52,270.77,060126,,,D*62
$GNGGA,235443.000,3935.7947,N,10602.0393,W,2,15,0.72,2822.3,M,-19.5,M,,*71
$GPGSV,4,1,13,06,74,072,35,11,54,203,33,19,50,053,31,12,44,312,25*75
$GPGSV,4,2,13,48,40,208,31,24,36,249,28,22,30,124,26,17,30,067,35*79
$GPGSV,4,3,13,20,16,167,22,14,12,129,24,03,08,035,19,21,07,164,*71
$GPGSV,4,4,13,25,07,311,13*4A
$GLGSV,2,1,06,80,87,220,37,82,70,000,35,73,31,325,41,79,31,151,28*6C
$GLGSV,2,2,06,81,26,037,28,65,03,021,*63
$GNRMC,235443.000,A,3935.7947,N,10602.0393,W,1.58,294.64,060126,,,D*6F
$GNGGA,235444.000,3935.7949,N,10602.0394,W,2,15,0.72,2822.1,M,-19.5,M,,*7D
$GPGSV,4,1,13,06,74,072,24,11,54,203,34,19,50,053,32,12,44,312,29*7D
$GPGSV,4,2,13,48,40,208,30,24,36,249,28,22,30,124,27,17,30,067,25*78
$GPGSV,4,3,13,20,16,167,22,14,12,129,25,03,08,035,18,21,07,164,*71
$GPGSV,4,4,13,25,07,311,13*4A
$GLGSV,2,1,06,80,87,220,37,82,70,000,28,73,31,325,28,79,31,151,27*60
$GLGSV,2,2,06,81,26,037,26,65,03,021,*6D
$GNRMC,235444.000,A,3935.7949,N,10602.0394,W,1.07,304.32,060126,,,D*60
$GNGGA,235445.000,3935.7949,N,10602.0398,W,2,15,0.72,2822.1,M,-19.5,M,,*70
$GPGSV,4,1,13,06,74,072,24,11,54,203,32,19,50,053,30,12,44,312,25*75
$GPGSV,4,2,13,48,40,208,30,24,36,249,27,22,30,124,35,17,30,067,25*74
$GPGSV,4,3,13,20,16,167,23,14,12,129,26,03,08,035,18,21,07,164,*73
$GPGSV,4,4,13,25,07,311,*48
$GLGSV,2,1,06,80,87,220,27,82,70,000,27,73,31,325,28,79,31,151,27*6E
$GLGSV,2,2,06,81,26,037,25,65,03,021,*6E
$GNRMC,235445.000,A,3935.7949,N,10602.0398,W,0.60,315.28,060126,,,D*66
$GNGGA,235446.000,3935.7950,N,10602.0398,W,2,15,0.72,2822.0,M,-19.5,M,,*7A
$GPGSV,4,1,13,06,74,072,39,11,54,203,34,19,50,053,37,12,44,312,38*74
$GPGSV,4,2,13,48,40,208,31,24,36,249,28,22,30,124,35,17,30,067,26*79
$GPGSV,4,3,13,20,16,167,32,14,12,129,26,03,08,035,18,21,07,164,*73
$GPGSV,4,4,13,25,07,311,*48
$GLGSV,2,1,06,80,87,220,26,82,70,000,35,73,31,325,29,79,31,151,28*62
$GLGSV,2,2,06,81,26,037,24,65,03,021,*6F
$GNRMC,235446.000,A,3935.7950,N,10602.0398,W,0.27,315.28,060126,,,D*6E
$GNGGA,235447.000,3935.7950,N,10602.0399,W,2,15,0.72,2821.9,M,-19.5,M,,*70
$GPGSV,4,1,13,06,74,072,31,11,54,203,33,19,50,053,29,12,44,312,26*7B
$GPGSV,4,2,13,48,40,208,29,24,36,249,30,22,30,124,33,17,30,067,24*7D
$GPGSV,4,3,13,20,16,167,32,14,12,129,24,03,08,035,18,21,07,164,*71
$GPGSV,4,4,13,25,07,311,*48
$GLGSV,2,1,06,80,87,220,33,82,70,000,34,73,31,325,20,79,31,151,35*62
$GLGSV,2,2,06,81,26,037,24,65,03,021,*6F
$GNRMC,235447.000,A,3935.7950,N,10602.0399,W,0.27,315.28,060126,,,D*6E
$GNGGA,235448.000,3935.7950,N,10602.0400,W,2,15,0.72,2821.8,M,-19.5,M,,*79
$GPGSV,4,1,13,06,74,072,31,11,54,203,22,19,50,053,31,12,44,312,18*7F
$GPGSV,4,2,13,48,40,208,28,24,36,249,31,22,30,124,32,17,30,067,23*7B
$GPGSV,4,3,13,20,16,167,31,14,12,129,22,03,08,035,18,21,07,164,*74
$GPGSV,4,4,13,25,07,311,*48
$GLGSV,2,1,06,80,87,220,34,82,70,000,35,73,31,325,30,79,31,151,36*66
$GLGSV,2,2,06,81,26,037,25,65,03,021,*6E
$GNRMC,235448.000,A,3935.7950,N,10602.0400,W,0.10,315.28,060126,,,D*62
$GNGGA,235449.000,3935.7951,N,10602.0400,W,2,15,0.72,2821.9,M,-19.5,M,,*78
$GPGSV,4,1,13,06,74,072,39,11,54,203,33,19,50,053,33,12,44,312,39*76
$GPGSV,4,2,13,48,40,208,37,24,36,249,33,22,30,124,24,17,30,067,23*70
$GPGSV,4,3,13,20,16,167,23,14,12,129,20,03,08,035,18,21,07,164,*75
$GPGSV,4,4,13,25,07,311,*48
$GLGSV,2,1,06,80,87,220,36,82,70,000,36,73,31,325,38,79,31,151,37*6E
$GLGSV,2,2,06,81,26,037,24,65,03,021,*6F
$GNRMC,235449.000,A,3935.7951,N,10602.0400,W,0.38,315.28,060126,,,D*68
$GNGGA,235450.000,3935.7950,N,10602.0399,W,2,15,0.72,2822.1,M,-19.5,M,,*7D
$GPGSV,4,1,13,06,74,072,39,11,54,203,34,19,50,053,34,12,44,312,39*76
$GPGSV,4,2,13,48,40,208,38,24,36,249,34,22,30,124,25,17,30,067,23*79
$GPGSV,4,3,13,20,16,167,32,14,12,129,20,03,08,035,18,21,07,164,*75
$GPGSV,4,4,13,25,07,311,*48
$GLGSV,2,1,06,80,87,220,37,82,70,000,36,73,31,325,38,79,31,151,39*61
$GLGSV,2,2,06,81,26,037,22,65,03,021,*69
$GNRMC,235450.000,A,3935.7950,N,10602.0399,W,0.48,315.28,060126,,,D*61
$GNGGA,235451.000,3935.7950,N,10602.0398,W,2,15,0.72,2822.3,M,-19.5,M,,*7F
$GPGSV,4,1,13,06,74,072,39,11,54,203,34,19,50,053,34,12,44,312,39*76
$GPGSV,4,2,13,48,40,208,38,24,36,249,35,22,30,124,26,17,30,067,23*7B
$GPGSV,4,3,13,20,16,167,22,14,12,129,20,03,08,035,18,21,07,164,*74
$GPGSV,4,4,13,25,07,311,*48
$GLGSV,2,1,06,80,87,220,37,82,70,000,36,73,31,325,38,79,31,151,39*61
$GLGSV,2,2,06,81,26,037,20,65,03,020,*6A
$GNRMC,235451.000,A,3935.7950,N,10602.0398,W,0.28,315.28,060126,,,D*67
$GNGGA,235452.000,3935.7949,N,10602.0398,W,2,15,0.72,2822.3,M,-19.5,M,,*74
$GPGSV,4,1,13,06,74,072,30,11,54,203,32,19,50,053,32,12,44,312,32*74
$GPGSV,4,2,13,48,40,208,36,24,36,249,33,22,30,124,25,17,30,067,22*71
$GPGSV,4,3,13,20,16,167,22,14,12,129,19,03,08,035,18,21,07,164,*7E
$GPGSV,4,4,13,25,07,311,*48
$GLGSV,2,1,06,80,87,220,36,82,70,000,34,73,31,325,36,79,31,151,38*6D
$GLGSV,2,2,06,81,26,037,19,65,03,020,*60
$GNRMC,235452.000,A,3935.7949,N,10602.0398,W,0.61,97.03,060126,,,D*51
$GNGGA,235453.000,3935.7950,N,10602.0397,W,2,15,0.72,2822.4,M,-19.5,M,,*75
$GPGSV,4,1,13,06,74,072,32,11,54,203,33,19,50,053,33,12,44,312,33*77
$GPGSV,4,2,13,48,40,208,37,24,36,249,33,22,30,124,25,17,30,067,22*70
$GPGSV,4,3,13,20,16,167,23,14,12,129,18,03,08,035,18,21,07,164,*7E
$GPGSV,4,4,13,25,07,311,*48
$GLGSV,2,1,06,80,87,220,36,82,70,000,35,73,31,325,36,79,31,151,38*6C
$GLGSV,2,2,06,81,26,037,18,65,03,020,*61
$GNRMC,235453.000,A,3935.7950,N,10602.0397,W,0.23,97.03,060126,,,D*51
$GNGGA,235454.000,3935.7950,N,10602.0398,W,2,15,0.72,2822.4,M,-19.5,M,,*7D
$GPGSV,4,1,13,06,74,072,34,11,54,203,33,19,50,053,34,12,44,312,34*71
$GPGSV,4,2,13,48,40,208,37,24,36,249,34,22,30,124,25,17,30,067,22*77
$GPGSV,4,3,13,20,16,167,24,14,12,129,18,03,08,035,18,21,07,164,*79
$GPGSV,4,4,13,25,07,311,*48
$GLGSV,2,1,06,80,87,220,37,82,70,000,36,73,31,325,37,79,31,151,39*6E
$GLGSV,2,2,06,81,26,037,17,65,03,020,*6E
$GNRMC,235454.000,A,3935.7950,N,10602.0398,W,0.03,97.03,060126,,,D*5B
$GNGGA,235455.000,3935.7950,N,10602.0398,W,2,15,0.72,2822.4,M,-19.5,M,,*7C
$GPGSV,4,1,13,06,74,072,35,11,54,203,33,19,50,053,34,12,44,312,37*73
$GPGSV,4,2,13,48,40,208,37,24,36,249,34,22,30,124,26,17,30,067,23*75
$GPGSV,4,3,13,20,16,167,26,14,12,129,18,03,08,035,18,21,07,164,*7B
$GPGSV,4,4,13,25,07,311,*48
$GLGSV,2,1,06,80,87,220,37,82,70,000,36,73,31,325,37,79,31,151,40*60
$GLGSV,2,2,06,81,26,037,16,65,03,020,*6F
$GNRMC,235455.000,A,3935.7950,N,10602.0398,W,0.04,97.03,060126,,,D*5D
$GNGGA,235456.000,3935.7950,N,10602.0398,W,2,14,0.75,2822.4,M,-19.5,M,,*79
$GPGSV,4,1,13,06,74,072,37,11,54,203,33,19,50,053,34,12,44,312,37*71
$GPGSV,4,2,13,48,40,208,38,24,36,249,35,22,30,124,26,17,30,067,23*7B
$GPGSV,4,3,13,20,16,167,27,14,12,129,18,03,08,035,18,21,07,164,*7A
$GPGSV,4,4,13,25,07,311,*48
$GLGSV,2,1,06,80,87,220,37,82,70,000,35,73,31,325,37,79,31,151,40*63
$GLGSV,2,2,06,81,26,037,16,65,03,020,*6F
$GNRMC,235456.000,A,3935.7950,N,10602.0398,W,0.09,97.03,060126,,,D*53
$GNGGA,235457.000,3935.7950,N,10602.0398,W,2,14,0.75,2822.5,M,-19.5,M,,*79
$GPGSV,4,1,13,06,74,072,37,11,54,203,33,19,50,053,35,12,44,312,37*70
$GPGSV,4,2,13,48,40,208,39,24,36,249,36,22,30,124,26,17,30,067,24*7E
$GPGSV,4,3,13,20,16,167,28,14,12,129,18,03,08,035,18,21,07,164,*75
$GPGSV,4,4,13,25,07,311,*48
$GLGSV,2,1,06,80,87,220,37,82,70,000,35,73,31,325,37,79,31,151,40*63
$GLGSV,2,2,06,81,26,037,16,65,03,020,*6F
$GNRMC,235457.000,A,3935.7950,N,10602.0398,W,0.05,97.03,060126,,,D*5E
$GNGGA,235458.000,3935.7950,N,10602.0398,W,2,14,0.75,2822.6,M,-19.5,M,,*75
$GPGSV,4,1,13,06,74,072,37,11,54,203,34,19,50,053,35,12,44,312,39*79
$GPGSV,4,2,13,48,40,208,39,24,36,249,36,22,30,124,25,17,30,067,25*7C
$GPGSV,4,3,13,20,16,167,28,14,12,129,17,03,08,035,18,21,07,164,*7A
$GPGSV,4,4,13,25,07,311,*48
$GLGSV,2,1,06,80,87,220,37,82,70,000,36,73,31,325,37,79,31,151,39*6E
$GLGSV,2,2,06,81,26,037,17,65,03,020,*6E
$GNRMC,235458.000,A,3935.7950,N,10602.0398,W,0.05,97.03,060126,,,D*51
$GNGGA,235459.000,3935.7950,N,10602.0398,W,2,15,0.72,2822.7,M,-19.5,M,,*73
$GPGSV,4,1,13,06,74,072,37,11,54,203,35,19,50,053,36,12,44,312,40*75
$GPGSV,4,2,13,48,40,208,39,24,36,249,36,22,30,124,25,17,30,067,25*7C
$GPGSV,4,3,13,20,16,167,27,14,12,129,17,03,08,035,18,21,07,164,*75
$GPGSV,4,4,13,25,07,311,*48
$GLGSV,2,1,06,80,87,220,37,82,70,000,36,73,32,325,37,79,31,151,38*6C
$GLGSV,2,2,06,81,26,037,19,65,03,020,*60
$GNRMC,235459.000,A,3935.7950,N,10602.0398,W,0.13,97.03,060126,,,D*57
$GNGGA,235500.000,3935.7950,N,10602.0398,W,2,15,0.72,2822.8,M,-19.5,M,,*71
$GPGSV,4,1,13,06,74,072,37,11,54,203,36,19,50,053,35,12,44,312,41*74
$GPGSV,4,2,13,48,40,208,39,24,36,249,36,22,30,124,26,17,30,067,25*7F
$GPGSV,4,3,13,20,16,167,35,14,12,129,24,03,08,035,18,21,07,164,*76
$GPGSV,4,4,13,25,07,311,*48
$GLGSV,2,1,06,80,87,220,38,82,70,000,36,73,32,325,45,79,31,151,37*69
$GLGSV,2,2,06,81,26,037,26,65,03,020,*6C
$GNRMC,235500.000,A,3935.7950,N,10602.0398,W,0.68,211.97,060126,,,D*67
$GNGGA,235501.000,3935.7949,N,10602.0398,W,2,15,0.72,2822.9,M,-19.5,M,,*79
$GPGSV,4,1,13,06,74,072,28,11,54,203,26,19,50,053,27,12,44,312,39*77
$GPGSV,4,2,13,48,40,208,37,24,36,249,27,22,30,124,26,17,30,067,32*77
$GPGSV,4,3,13,20,16,167,22,14,12,129,22,03,08,035,17,21,07,164,*79
$GPGSV,4,4,13,25,07,311,*48
$GLGSV,2,1,06,80,87,220,28,82,70,000,43,73,32,325,45,79,31,151,35*68
$GLGSV,2,2,06,81,26,037,27,65,03,020,*6D
$GNRMC,235501.000,A,3935.7949,N,10602.0398,W,0.16,211.97,060126,,,D*67
$GNGGA,235502.000,3935.7948,N,10602.0399,W,2,15,0.72,2823.0,M,-19.5,M,,*72
$GPGSV,4,1,13,06,74,072,33,11,54,203,26,19,50,053,36,12,44,312,38*7C
$GPGSV,4,2,13,48,40,208,36,24,36,249,34,22,30,124,24,17,30,067,33*77
$GPGSV,4,3,13,20,16,167,23,14,12,129,21,03,08,035,17,21,07,164,*7B
$GPGSV,4,4,13,25,07,311,20*4A
$GLGSV,2,1,06,80,87,220,39,82,70,000,44,73,32,325,43,79,31,151,36*6A
$GLGSV,2,2,06,81,26,037,35,65,03,020,*6E
$GNRMC,235502.000,A,3935.7948,N,10602.0399,W,0.30,211.97,060126,,,D*60
$GNGGA,235503.000,3935.7948,N,10602.0399,W,2,15,0.72,2822.9,M,-19.5,M,,*7B
$GPGSV,4,1,13,06,74,072,40,11,54,203,37,19,50,053,38,12,44,312,38*76
$GPGSV,4,2,13,48,40,208,35,24,36,249,35,22,30,124,26,17,30,067,34*70
$GPGSV,4,3,13,20,16,167,24,14,12,129,22,03,08,035,17,21,07,164,*7F
$GPGSV,4,4,13,25,07,311,22*48
$GLGSV,2,1,06,80,87,220,41,82,70,000,44,73,32,325,43,79,31,151,29*6B
$GLGSV,2,2,06,81,26,037,34,65,03,020,*6F
$GNRMC,235503.000,A,3935.7948,N,10602.0399,W,0.31,211.97,060126,,,D*60
$GNGGA,235504.000,3935.7949,N,10602.0399,W,2,15,0.72,2823.1,M,-19.5,M,,*74
$GPGSV,4,1,13,06,74,072,25,11,54,203,23,19,50,053,30,12,44,312,33*73
$GPGSV,4,2,13,48,40,208,24,24,36,249,27,22,30,124,26,17,30,067,33*74
$GPGSV,4,3,13,20,16,167,23,14,12,129,24,03,08,035,16,21,07,164,*7F
$GPGSV,4,4,13,25,07,311,18*41
$GLGSV,2,1,06,80,87,220,33,82,70,000,34,73,32,325,33,79,31,151,27*60
$GLGSV,2,2,06,81,26,037,26,65,03,020,*6C
$GNRMC,235504.000,A,3935.7949,N,10602.0399,W,0.43,211.97,060126,,,D*63
$GNGGA,235505.000,3935.7950,N,10602.0398,W,2,15,0.72,2823.4,M,-19.5,M,,*79
$GPGSV,4,1,13,06,74,072,42,11,54,203,31,19,50,053,32,12,44,312,43*74
$GPGSV,4,2,13,48,40,208,34,24,36,249,38,22,30,124,26,17,30,067,34*7C
$GPGSV,4,3,13,20,16,167,22,14,12,129,23,03,08,035,16,21,07,164,*79
$GPGSV,4,4,13,25,07,311,17*4E
$GLGSV,2,1,06,80,87,220,35,82,70,000,42,73,32,325,45,79,30,151,28*68
$GLGSV,2,2,06,81,26,037,41,65,03,020,*6D
$GNRMC,235505.000,A,3935.7950,N,10602.0398,W,0.75,133.72,060126,,,D*66
$GNGGA,235506.000,3935.7949,N,10602.0396,W,2,15,0.72,2823.1,M,-19.5,M,,*79
$GPGSV,4,1,13,06,74,072,40,11,54,203,29,19,50,053,33,12,44,312,29*72
$GPGSV,4,2,13,48,40,208,26,24,36,249,32,22,30,124,25,17,30,067,26*75
$GPGSV,4,3,13,20,16,167,21,14,12,129,22,03,08,035,16,21,07,164,*7B
$GPGSV,4,4,13,25,07,311,17*4E
$GLGSV,2,1,06,80,86,207,23,82,70,000,29,73,32,325,36,79,30,151,27*6D
$GLGSV,2,2,06,81,26,037,33,65,03,020,*68
$GNRMC,235506.000,A,3935.7949,N,10602.0396,W,0.69,109.20,060126,,,D*60
$GNGGA,235507.000,3935.7948,N,10602.0395,W,2,15,0.72,2822.9,M,-19.5,M,,*73
$GPGSV,4,1,13,06,74,072,41,11,54,203,40,19,50,053,40,12,44,312,39*79
$GPGSV,4,2,13,48,40,208,41,24,36,249,42,22,30,124,39,17,30,067,34*7D
$GPGSV,4,3,13,20,16,167,30,14,12,129,31,03,08,035,17,21,07,164,*78
$GPGSV,4,4,13,25,07,311,17*4E
$GLGSV,2,1,06,80,86,207,37,82,70,000,31,73,32,325,43,79,30,151,40*62
$GLGSV,2,2,06,81,25,037,23,65,03,020,*6A
$GNRMC,235507.000,A,3935.7948,N,10602.0395,W,0.36,109.20,060126,,,D*69
$GNGGA,235508.000,3935.7948,N,10602.0395,W,2,15,0.72,2822.9,M,-19.5,M,,*7C
$GPGSV,4,1,13,06,74,072,42,11,54,203,40,19,50,053,40,12,44,312,39*7A
$GPGSV,4,2,13,48,40,208,41,24,36,249,41,22,30,124,39,17,30,067,33*79
$GPGSV,4,3,13,20,16,167,28,14,12,129,31,03,08,035,17,21,07,164,*71
$GPGSV,4,4,13,25,07,311,16*4F
$GLGSV,2,1,06,80,86,207,37,82,70,002,31,73,32,325,43,79,30,151,40*60
$GLGSV,2,2,06,81,25,037,23,65,03,020,*6A
$GNRMC,235508.000,A,3935.7948,N,10602.0395,W,0.12,109.20,060126,,,D*60
$GNGGA,235509.000,3935.7948,N,10602.0395,W,2,15,0.72,2822.7,M,-19.5,M,,*73
$GPGSV,4,1,13,06,74,072,42,11,54,203,40,19,50,053,40,12,44,312,39*7A
$GPGSV,4,2,13,48,40,208,41,24,36,249,41,22,30,124,38,17,30,067,33*78
$GPGSV,4,3,13,20,16,167,27,14,12,129,29,03,08,035,18,21,07,164,*78
$GPGSV,4,4,13,25,07,311,15*4C
$GLGSV,2,1,06,80,86,207,37,82,70,002,32,73,32,325,42,79,30,151,41*63
$GLGSV,2,2,06,81,25,037,23,65,03,020,*6A
$GNRMC,235509.000,A,3935.7948,N,10602.0395,W,0.07,109.20,060126,,,D*65
$GNGGA,235510.000,3935.7948,N,10602.0395,W,2,15,0.72,2822.7,M,-19.5,M,,*7B
$GPGSV,4,1,13,06,74,072,33,11,54,203,31,19,50,053,32,12,44,312,30*76
$GPGSV,4,2,13,48,40,208,34,24,36,249,32,22,30,124,29,17,30,067,26*7A
$GPGSV,4,3,13,20,16,167,25,14,12,129,27,03,08,035,18,21,07,164,*74
$GPGSV,4,4,13,25,07,311,14*4D
$GLGSV,2,1,06,80,86,207,29,82,70,002,30,73,32,325,34,79,30,151,34*6D
$GLGSV,2,2,06,81,25,037,22,65,03,020,*6B
$GNRMC,235510.000,A,3935.7948,N,10602.0395,W,0.19,109.20,060126,,,D*62
$GNGGA,235511.000,3935.7949,N,10602.0395,W,2,15,0.72,2822.9,M,-19.5,M,,*75
$GPGSV,4,1,13,06,74,072,41,11,54,203,38,19,50,053,40,12,44,312,37*78
$GPGSV,4,2,13,48,40,208,35,24,36,249,40,22,30,124,36,17,30,067,27*71
$GPGSV,4,3,13,20,16,167,24,14,12,129,27,03,08,035,18,21,07,164,*75
$GPGSV,4,4,13,25,07,311,14*4D
$GLGSV,2,1,06,80,86,207,31,82,70,002,31,73,32,325,41,79,30,151,36*65
$GLGSV,2,2,06,81,25,037,22,65,03,020,*6B
$GNRMC,235511.000,A,3935.7949,N,10602.0395,W,0.00,109.20,060126,,,D*6A
$GNGGA,235512.000,3935.7949,N,10602.0394,W,2,15,0.72,2823.1,M,-19.5,M,,*7E
$GPGSV,4,1,13,06,74,072,41,11,54,203,38,19,50,053,39,12,44,312,37*76
$GPGSV,4,2,13,48,40,208,36,24,36,249,40,22,30,124,35,17,30,067,28*7E
$GPGSV,4,3,13,20,16,167,23,14,12,129,27,03,08,035,18,21,07,164,*72
$GPGSV,4,4,13,25,07,311,14*4D
$GLGSV,2,1,06,80,86,207,32,82,70,002,31,73,32,325,41,79,30,151,37*67
$GLGSV,2,2,06,81,25,037,22,65,03,020,*6B
$GNRMC,235512.000,A,3935.7949,N,10602.0394,W,0.05,109.20,060126,,,D*6D
$GNGGA,235513.000,3935.7949,N,10602.0395,W,2,15,0.72,2823.1,M,-19.5,M,,*7E
$GPGSV,4,1,13,06,74,072,41,11,54,203,38,19,50,053,39,12,44,312,37*76
$GPGSV,4,2,13,48,40,208,37,24,36,249,40,22,30,124,35,17,30,067,28*7F
$GPGSV,4,3,13,20,16,167,23,14,12,129,27,03,08,035,18,21,07,164,*72
$GPGSV,4,4,13,25,07,311,14*4D
$GLGSV,2,1,06,80,86,207,33,82,70,002,32,73,32,325,41,79,30,151,39*6B
$GLGSV,2,2,06,81,25,037,22,65,03,020,*6B
$GNRMC,235513.000,A,3935.7949,N,10602.0395,W,0.05,109.20,060126,,,D*6D
$GNGGA,235514.000,3935.7949,N,10602.0395,W,2,15,0.72,2823.1,M,-19.5,M,,*79
$GPGSV,4,1,13,06,74,072,41,11,54,203,38,19,50,053,39,12,44,312,37*76
$GPGSV,4,2,13,48,40,208,38,24,36,249,40,22,30,124,36,17,30,067,30*7A
$GPGSV,4,3,13,20,16,167,23,14,12,129,27,03,08,035,18,21,07,164,*72
$GPGSV,4,4,13,25,07,311,14*4D
$GLGSV,2,1,06,80,86,207,34,82,70,002,32,73,32,325,41,79,30,151,40*62
$GLGSV,2,2,06,81,25,037,22,65,03,020,*6B
$GNRMC,235514.000,A,3935.7949,N,10602.0395,W,0.08,109.20,060126,,,D*67
$GNGGA,235515.000,3935.7949,N,10602.0395,W,2,15,0.72,2823.1,M,-19.5,M,,*78
$GPGSV,4,1,13,06,74,072,40,11,54,203,38,19,50,053,39,12,44,312,36*76
$GPGSV,4,2,13,48,40,208,38,24,36,249,40,22,30,124,36,17,30,067,30*7A
$GPGSV,4,3,13,20,16,167,22,14,12,129,27,03,08,035,18,21,07,164,*73
$GPGSV,4,4,13,25,07,311,14*4D
$GLGSV,2,1,06,80,86,207,34,82,70,002,32,73,32,325,41,79,30,151,39*6C
$GLGSV,2,2,06,81,25,037,22,65,03,020,*6B
$GNRMC,235515.000,A,3935.7949,N,10602.0395,W,0.06,109.20,060126,,,D*68
$GNGGA,235516.000,3935.7949,N,10602.0395,W,2,15,0.72,2823.2,M,-19.5,M,,*78
$GPGSV,4,1,13,06,74,072,40,11,54,203,38,19,50,053,40,12,44,312,37*79
$GPGSV,4,2,13,48,40,208,39,24,36,249,40,22,30,124,37,17,30,067,32*78
$GPGSV,4,3,13,20,16,167,23,14,12,129,26,03,08,035,18,21,07,164,*73
$GPGSV,4,4,13,25,07,311,14*4D
$GLGSV,2,1,06,80,86,207,34,82,70,002,33,73,32,325,41,79,30,151,40*63
$GLGSV,2,2,06,81,25,037,22,65,03,020,*6B
$GNRMC,235516.000,A,3935.7949,N,10602.0395,W,0.04,109.20,060126,,,D*69
$GNGGA,235517.000,3935.7949,N,10602.0395,W,2,15,0.72,2823.2,M,-19.5,M,,*79
$GPGSV,4,1,13,06,74,072,41,11,54,203,38,19,50,053,40,12,44,312,40*78
$GPGSV,4,2,13,48,40,208,40,24,36,249,40,22,30,124,38,17,30,067,33*78
$GPGSV,4,3,13,20,16,167,24,14,12,129,26,03,08,035,19,21,07,164,*75
$GPGSV,4,4,13,25,07,311,14*4D
$GLGSV,2,1,06,80,86,207,34,82,70,002,33,73,32,325,41,79,30,151,41*62
$GLGSV,2,2,06,81,25,037,23,65,03,020,*6A
$GNRMC,235517.000,A,3935.7949,N,10602.0395,W,0.10,109.20,060126,,,D*6D
$GNGGA,235518.000,3935.7949,N,10602.0395,W,2,15,0.72,2823.2,M,-19.5,M,,*76
$GPGSV,4,1,13,06,74,072,43,11,54,203,39,19,50,053,41,12,44,312,40*7A
$GPGSV,4,2,13,48,40,208,40,24,36,249,41,22,30,124,38,17,30,067,34*7E
$GPGSV,4,3,13,20,16,167,25,14,12,129,26,03,08,035,19,21,07,164,*74
$GPGSV,4,4,13,25,07,311,15*4C
$GLGSV,2,1,06,80,86,207,34,82,70,002,34,73,32,325,41,79,30,151,41*65
$GLGSV,2,2,06,81,25,037,23,65,03,020,*6A
$GNRMC,235518.000,A,3935.7949,N,10602.0395,W,0.05,109.20,060126,,,D*66
$GNGGA,235519.000,3935.7949,N,10602.0395,W,2,15,0.72,2823.3,M,-19.5,M,,*76
$GPGSV,4,1,13,06,74,072,43,11,54,203,39,19,50,053,41,12,44,312,40*7A
$GPGSV,4,2,13,48,40,208,40,24,36,249,41,22,30,124,38,17,30,067,34*7E
$GPGSV,4,3,13,20,16,167,25,14,12,129,26,03,08,035,19,21,07,164,*74
$GPGSV,4,4,13,25,07,311,15*4C
$GLGSV,2,1,06,80,86,207,35,82,70,002,34,73,32,325,41,79,30,151,41*64
$GLGSV,2,2,06,81,25,037,24,65,03,020,*6D
$GNRMC,235519.000,A,3935.7949,N,10602.0395,W,0.06,109.20,060126,,,D*64
$GNGGA,235520.000,3935.7949,N,10602.0395,W,2,15,0.72,2823.3,M,-19.5,M,,*7C
$GPGSV,4,1,13,06,74,072,43,11,54,203,39,19,50,053,41,12,44,312,38*75
$GPGSV,4,2,13,48,40,208,40,24,36,249,41,22,30,124,38,17,30,067,34*7E
$GPGSV,4,3,13,20,16,167,25,14,12,129,26,03,08,035,19,21,07,164,*74
$GPGSV,4,4,13,25,07,311,15*4C
$GLGSV,2,1,06,80,86,207,36,82,70,002,34,73,32,325,41,79,30,151,41*67
$GLGSV,2,2,06,81,25,037,24,65,03,020,*6D
$GNRMC,235520.000,A,3935.7949,N,10602.0395,W,0.06,109.20,060126,,,D*6E
$GNGGA,235521.000,3935.7949,N,10602.0395,W,2,15,0.72,2823.3,M,-19.5,M,,*7D
$GPGSV,4,1,13,06,74,072,42,11,54,203,39,19,50,053,41,12,44,312,38*74
$GPGSV,4,2,13,48,40,208,40,24,36,249,41,22,30,124,38,17,30,067,33*79
$GPGSV,4,3,13,20,16,167,24,14,12,129,26,03,08,035,19,21,07,164,*75
$GPGSV,4,4,13,25,07,311,15*4C
$GLGSV,2,1,06,80,86,207,36,82,70,002,34,73,32,325,41,79,30,151,41*67
$GLGSV,2,2,06,81,25,037,24,65,03,020,*6D
$GNRMC,235521.000,A,3935.7949,N,10602.0395,W,0.05,109.20,060126,,,D*6C
$GNGGA,235522.000,3935.7949,N,10602.0395,W,2,15,0.72,2823.4,M,-19.5,M,,*79
$GPGSV,4,1,13,06,74,072,42,11,54,203,40,19,50,053,40,12,44,312,38*7B
$GPGSV,4,2,13,48,40,208,41,24,36,249,41,22,30,124,38,17,30,067,22*78
$GPGSV,4,3,13,20,16,167,23,14,12,129,26,03,08,035,19,21,07,164,*72
$GPGSV,4,4,13,25,07,311,14*4D
$GLGSV,2,1,06,80,86,207,36,82,70,002,35,73,32,325,42,79,30,151,42*66
$GLGSV,2,2,06,81,25,037,24,65,03,020,*6D
$GNRMC,235522.000,A,3935.7949,N,10602.0395,W,0.07,109.20,060126,,,D*6D
$GNGGA,235523.000,3935.7949,N,10602.0395,W,2,15,0.72,2823.4,M,-19.5,M,,*78
$GPGSV,4,1,13,06,74,072,27,11,54,203,33,19,50,053,30,12,44,312,25*77
$GPGSV,4,2,13,48,40,208,27,24,36,249,25,22,30,124,29,17,30,067,21*79
$GPGSV,4,3,13,20,16,167,22,14,12,129,18,03,08,035,18,21,07,164,*7F
$GPGSV,4,4,13,25,07,311,14*4D
$GLGSV,2,1,06,80,86,207,35,82,70,002,25,73,32,325,41,79,30,151,26*65
$GLGSV,2,2,06,81,25,037,25,65,03,020,*6C
$GNRMC,235523.000,A,3935.7949,N,10602.0395,W,0.65,109.20,060126,,,D*68
$GNGGA,235524.000,3935.7948,N,10602.0395,W,2,15,0.72,2823.4,M,-19.5,M,,*7E
$GPGSV,4,1,13,06,74,072,34,11,54,203,31,19,50,053,28,12,44,312,37*7D
$GPGSV,4,2,13,48,40,208,28,24,36,249,26,22,30,124,18,17,30,067,20*76
$GPGSV,4,3,13,20,16,167,20,14,12,129,18,03,08,035,16,21,07,164,*73
$GPGSV,4,4,13,25,07,311,13*4A
$GLGSV,2,1,06,80,86,207,36,82,70,002,27,73,32,325,40,79,30,151,36*64
$GLGSV,2,2,06,81,25,037,24,65,03,020,*6D
$GNRMC,235524.000,A,3935.7948,N,10602.0395,W,0.10,109.20,060126,,,D*6C
$GNGGA,235525.000,3935.7948,N,10602.0395,W,2,15,0.72,2823.4,M,-19.5,M,,*7F
$GPGSV,4,1,13,06,74,072,33,11,54,203,32,19,50,053,30,12,44,312,37*70
$GPGSV,4,2,13,48,40,208,27,24,36,249,26,22,30,124,30,17,30,067,20*73
$GPGSV,4,3,13,20,16,167,20,14,12,129,19,03,08,035,16,21,07,164,*72
$GPGSV,4,4,13,25,07,311,13*4A
$GLGSV,2,1,06,80,86,207,36,82,70,002,27,73,32,325,40,79,30,151,25*66
$GLGSV,2,2,06,81,25,037,26,65,03,020,*6F
$GNRMC,235525.000,A,3935.7948,N,10602.0395,W,0.34,109.20,060126,,,D*6B
$GNGGA,235526.000,3935.7947,N,10602.0396,W,2,15,0.72,2823.4,M,-19.5,M,,*70
$GPGSV,4,1,13,06,74,072,35,11,54,203,34,19,50,053,43,12,44,312,37*74
$GPGSV,4,2,13,48,40,208,36,24,36,249,39,22,30,124,30,17,30,067,27*7A
$GPGSV,4,3,13,20,16,167,20,14,12,129,20,03,08,035,18,21,07,164,*76
$GPGSV,4,4,13,25,07,311,*48
$GLGSV,2,1,06,80,86,207,35,82,70,002,38,73,32,325,40,79,30,151,36*69
$GLGSV,2,2,06,81,25,037,27,65,03,020,*6E
$GNRMC,235526.000,A,3935.7947,N,10602.0396,W,0.78,39.34,060126,,,D*5B
$GNGGA,235527.000,3935.7948,N,10602.0396,W,2,15,0.72,2823.6,M,-19.5,M,,*7C
$GPGSV,4,1,13,06,74,072,42,11,54,203,36,19,50,053,43,12,44,312,37*76
$GPGSV,4,2,13,48,40,208,37,24,36,249,39,22,30,124,38,17,30,067,28*7C
$GPGSV,4,3,13,20,16,167,20,14,12,129,21,03,08,035,22,21,07,164,*7E
$GPGSV,4,4,13,25,07,311,*48
$GLGSV,2,1,06,80,86,207,35,82,70,002,38,73,32,325,40,79,30,151,37*68
$GLGSV,2,2,06,81,25,037,28,65,03,020,*61
$GNRMC,235527.000,A,3935.7948,N,10602.0396,W,0.15,39.34,060126,,,D*5E
$GNGGA,235528.000,3935.7948,N,10602.0397,W,2,15,0.72,2823.5,M,-19.5,M,,*71
$GPGSV,4,1,13,06,74,072,42,11,54,203,37,19,50,053,43,12,44,312,37*77
$GPGSV,4,2,13,48,40,208,37,24,36,249,40,22,30,124,38,17,30,067,35*7E
$GPGSV,4,3,13,20,16,167,21,14,12,129,22,03,08,035,18,21,07,164,*75
$GPGSV,4,4,13,25,07,311,*48
$GLGSV,2,1,06,80,86,207,35,82,70,002,38,73,32,325,41,79,30,151,38*66
$GLGSV,2,2,06,81,25,037,29,65,03,020,*60
$GNRMC,235528.000,A,3935.7948,N,10602.0397,W,0.20,39.34,060126,,,D*56
$GNGGA,235529.000,3935.7948,N,10602.0398,W,2,15,0.72,2823.5,M,-19.5,M,,*7F
$GPGSV,4,1,13,06,74,072,42,11,54,203,38,19,50,053,42,12,44,312,37*79
$GPGSV,4,2,13,48,40,208,37,24,36,249,40,22,30,124,38,17,30,067,34*7F
$GPGSV,4,3,13,20,16,167,22,14,12,129,24,03,08,035,19,21,07,164,*71
$GPGSV,4,4,13,25,07,311,*48
$GLGSV,2,1,06,80,86,207,35,82,70,002,37,73,32,325,41,79,30,151,39*68
$GLGSV,2,2,06,81,25,037,29,65,03,020,*60
$GNRMC,235529.000,A,3935.7948,N,10602.0398,W,0.24,39.34,060126,,,D*5C
$GNGGA,235530.000,3935.7948,N,10602.0398,W,2,15,0.72,2823.5,M,-19.5,M,,*77
$GPGSV,4,1,13,06,74,072,42,11,54,203,38,19,50,053,42,12,44,312,36*78
$GPGSV,4,2,13,48,40,208,37,24,36,249,39,22,30,124,38,17,30,067,33*76
$GPGSV,4,3,13,20,16,167,23,14,12,129,25,03,08,035,20,21,07,164,*7B
$GPGSV,4,4,13,25,07,311,*48
$GLGSV,2,1,06,80,86,207,35,82,70,002,37,73,32,325,41,79,30,151,39*68
$GLGSV,2,2,06,81,25,037,29,65,03,020,*60
$GNRMC,235530.000,A,3935.7948,N,10602.0398,W,0.22,39.34,060126,,,D*52
$GNGGA,235531.000,3935.7948,N,10602.0398,W,2,15,0.72,2823.5,M,-19.5,M,,*76
$GPGSV,4,1,13,06,74,072,42,11,54,203,39,19,50,053,42,12,44,312,36*79
$GPGSV,4,2,13,48,40,208,37,24,36,249,39,22,30,124,38,17,30,067,33*76
$GPGSV,4,3,13,20,16,167,23,14,12,129,26,03,08,035,20,21,07,164,*78
$GPGSV,4,4,13,25,07,311,*48
$GLGSV,2,1,06,80,86,207,35,82,70,002,37,73,32,325,41,79,30,151,39*68
$GLGSV,2,2,06,81,25,037,29,65,03,020,*60
$GNRMC,235531.000,A,3935.7948,N,10602.0398,W,0.06,39.34,060126,,,D*55
$GNGGA,235532.000,3935.7948,N,10602.0399,W,2,15,0.72,2823.6,M,-19.5,M,,*77
$GPGSV,4,1,13,06,74,072,40,11,54,203,38,19,50,053,41,12,44,312,35*7A
$GPGSV,4,2,13,48,40,208,36,24,36,249,37,22,30,124,36,17,30,067,31*75
$GPGSV,4,3,13,20,16,167,23,14,12,129,26,03,08,035,19,21,07,164,*72
$GPGSV,4,4,13,25,07,311,*48
$GLGSV,2,1,06,80,86,207,34,82,70,002,36,73,32,325,40,79,30,151,38*68
$GLGSV,2,2,06,81,25,037,28,65,03,020,*61
$GNRMC,235532.000,A,3935.7948,N,10602.0399,W,0.21,39.34,060126,,,D*52
$GNGGA,235533.000,3935.7948,N,10602.0398,W,2,15,0.72,2823.6,M,-19.5,M,,*77
$GPGSV,4,1,13,06,74,072,39,11,54,203,37,19,50,053,40,12,44,312,35*7A
$GPGSV,4,2,13,48,40,208,35,24,36,249,37,22,30,124,36,17,30,067,31*76
$GPGSV,4,3,13,20,16,167,23,14,12,129,26,03,08,035,19,21,07,164,*72
$GPGSV,4,4,13,25,07,311,*48
$GLGSV,2,1,06,80,86,207,34,82,70,002,36,73,32,325,40,79,30,151,38*68
$GLGSV,2,2,06,81,25,037,28,65,03,020,*61
$GNRMC,235533.000,A,3935.7948,N,10602.0398,W,0.03,39.34,060126,,,D*52
$GNGGA,235534.000,3935.7948,N,10602.0398,W,2,15,0.72,2823.6,M,-19.5,M,,*70
$GPGSV,4,1,13,06,74,072,42,11,54,203,38,19,50,053,41,12,44,312,36*7B
$GPGSV,4,2,13,48,40,208,36,24,36,249,38,22,30,124,37,17,30,067,32*78
$GPGSV,4,3,13,20,16,167,24,14,12,129,27,03,08,035,19,21,07,164,*74
$GPGSV,4,4,13,25,07,311,*48
$GLGSV,2,1,06,80,86,207,34,82,70,002,37,73,32,325,40,79,30,151,39*68
$GLGSV,2,2,06,81,25,037,28,65,03,020,*61
$GNRMC,235534.000,A,3935.7948,N,10602.0398,W,0.10,39.34,060126,,,D*57
$GNGGA,235535.000,3935.7948,N,10602.0398,W,2,15,0.72,2823.6,M,-19.5,M,,*71
$GPGSV,4,1,13,06,74,072,42,11,54,203,39,19,50,053,41,12,44,312,37*7B
$GPGSV,4,2,13,48,40,208,37,24,36,249,39,22,30,124,38,17,30,067,33*76
$GPGSV,4,3,13,20,16,167,25,14,12,129,28,03,08,035,19,21,07,164,*7A
$GPGSV,4,4,13,25,07,311,*48
$GLGSV,2,1,06,80,86,207,34,82,70,002,37,73,32,325,40,79,30,151,40*66
$GLGSV,2,2,06,81,25,037,28,65,03,020,*61
$GNRMC,235535.000,A,3935.7948,N,10602.0398,W,0.19,39.34,060126,,,D*5F
$GNGGA,235536.000,3935.7948,N,10602.0398,W,2,15,0.72,2823.6,M,-19.5,M,,*72
$GPGSV,4,1,13,06,74,072,42,11,54,203,39,19,50,053,41,12,44,312,37*7B
$GPGSV,4,2,13,48,40,208,37,24,36,249,39,22,30,124,38,17,30,067,33*76
$GPGSV,4,3,13,20,16,167,25,14,12,129,29,03,08,035,19,21,07,164,*7B
$GPGSV,4,4,13,25,07,311,*48
$GLGSV,2,1,06,80,86,207,34,82,70,002,37,73,32,325,40,79,30,151,40*66
$GLGSV,2,2,06,81,25,037,28,65,03,020,*61
$GNRMC,235536.000,A,3935.7948,N,10602.0398,W,0.17,39.34,060126,,,D*52
$GNGGA,235537.000,3935.7948,N,10602.0397,W,2,15,0.72,2823.6,M,-19.5,M,,*7C
$GPGSV,4,1,13,06,74,072,42,11,54,203,39,19,50,053,41,12,44,312,37*7B
$GPGSV,4,2,13,48,40,208,37,24,36,249,40,22,30,124,38,17,30,067,33*78
$GPGSV,4,3,13,20,16,167,26,14,12,129,29,03,08,035,19,21,07,164,*78
$GPGSV,4,4,13,25,07,311,*48
$GLGSV,2,1,06,80,86,207,34,82,70,002,37,73,32,325,40,79,30,151,40*66
$GLGSV,2,2,06,81,25,037,28,65,03,020,*61
$GNRMC,235537.000,A,3935.7948,N,10602.0397,W,0.06,39.34,060126,,,D*5C
$GNGGA,235538.000,3935.7948,N,10602.0397,W,2,15,0.72,2823.6,M,-19.5,M,,*73
$GPGSV,4,1,13,06,74,072,42,11,54,203,39,19,50,053,41,12,44,312,36*7A
$GPGSV,4,2,13,48,40,208,37,24,36,249,40,22,30,124,38,17,30,067,33*78
$GPGSV,4,3,13,20,16,167,26,14,12,129,29,03,08,035,19,21,07,164,*78
$GPGSV,4,4,13,25,07,311,*48
$GLGSV,2,1,06,80,86,207,34,82,70,002,36,73,32,325,40,79,30,151,40*67
$GLGSV,2,2,06,81,25,037,28,65,03,020,*61
$GNRMC,235538.000,A,3935.7948,N,10602.0397,W,0.07,39.34,060126,,,D*52
$GNGGA,235539.000,3935.7948,N,10602.0397,W,2,15,0.72,2823.6,M,-19.5,M,,*72
$GPGSV,4,1,13,06,74,072,42,11,54,203,39,19,50,053,41,12,44,312,36*7A
$GPGSV,4,2,13,48,40,208,37,24,36,249,40,22,30,124,38,17,30,067,33*78
$GPGSV,4,3,13,20,16,167,27,14,12,129,29,03,08,035,19,21,07,164,*79
$GPGSV,4,4,13,25,07,311,*48
$GLGSV,2,1,06,80,86,207,35,82,70,002,36,73,32,325,40,79,30,151,39*68
$GLGSV,2,2,06,81,25,037,28,65,03,020,*61
$GNRMC,235539.000,A,3935.7948,N,10602.0397,W,0.17,39.34,060126,,,D*52
$GNGGA,235540.000,3935.7948,N,10602.0397,W,2,15,0.72,2823.7,M,-19.5,M,,*7D
$GPGSV,4,1,13,06,74,072,40,11,54,203,39,19,50,053,41,12,44,312,36*78
$GPGSV,4,2,13,48,40,208,37,24,36,249,40,22,30,124,38,17,30,067,33*78
$GPGSV,4,3,13,20,16,167,27,14,12,129,29,03,08,035,19,21,07,164,*79
$GPGSV,4,4,13,25,07,311,*48
$GLGSV,2,1,06,80,86,207,35,82,70,002,36,73,32,325,40,79,30,151,39*68
$GLGSV,2,2,06,81,25,037,28,65,03,020,*61
$GNRMC,235540.000,A,3935.7948,N,10602.0397,W,0.12,39.34,060126,,,D*59
$GNGGA,235541.000,3935.7947,N,10602.0397,W,2,15,0.72,2823.8,M,-19.5,M,,*7C
$GPGSV,4,1,13,06,74,072,41,11,54,203,40,19,50,053,42,12,44,312,37*75
$GPGSV,4,2,13,48,40,208,38,24,36,249,41,22,30,124,39,17,30,067,34*70
$GPGSV,4,3,13,20,16,167,27,14,12,129,30,03,08,035,19,21,07,164,*71
$GPGSV,4,4,13,25,07,311,*48
$GLGSV,2,1,06,80,86,207,35,82,70,002,36,73,32,325,41,79,30,151,40*67
$GLGSV,2,2,06,81,25,037,28,65,03,020,*61
$GNRMC,235541.000,A,3935.7947,N,10602.0397,W,0.09,39.34,060126,,,D*5D
$GNGGA,235542.000,3935.7948,N,10602.0397,W,2,15,0.72,2823.7,M,-19.5,M,,*7F
$GPGSV,4,1,13,06,74,072,42,11,54,203,40,19,50,053,42,12,44,312,39*78
$GPGSV,4,2,13,48,40,208,38,24,36,249,41,22,30,124,40,17,30,067,34*7E
$GPGSV,4,3,13,20,16,167,26,14,12,129,30,03,08,035,19,21,07,164,*70
$GPGSV,4,4,13,25,07,311,*48
$GLGSV,2,1,06,80,86,207,35,82,70,002,36,73,32,325,41,79,30,151,40*67
$GLGSV,2,2,06,81,25,037,29,65,03,020,*60
$GNRMC,235542.000,A,3935.7948,N,10602.0397,W,0.08,39.34,060126,,,D*50
$GNGGA,235543.000,3935.7948,N,10602.0397,W,2,15,0.72,2823.8,M,-19.5,M,,*71
$GPGSV,4,1,13,06,74,072,42,11,54,203,40,19,50,053,42,12,44,312,39*78
$GPGSV,4,2,13,48,40,208,39,24,36,249,41,22,30,124,40,17,30,067,34*7F
$GPGSV,4,3,13,20,16,167,25,14,12,129,30,03,08,035,19,21,07,164,*73
$GPGSV,4,4,13,25,07,311,*48
$GLGSV,2,1,06,80,86,207,35,82,70,002,37,73,32,325,41,79,30,151,40*66
$GLGSV,2,2,06,81,25,037,29,65,03,020,*60
$GNRMC,235543.000,A,3935.7948,N,10602.0397,W,0.04,39.34,060126,,,D*5D
$GNGGA,235544.000,3935.7948,N,10602.0397,W,2,15,0.72,2823.9,M,-19.5,M,,*77
$GPGSV,4,1,13,06,74,072,42,11,54,203,40,19,50,053,42,12,44,312,39*78
$GPGSV,4,2,13,48,40,208,39,24,36,249,41,22,30,124,40,17,30,067,34*7F
$GPGSV,4,3,13,20,16,167,24,14,12,129,30,03,08,035,18,21,07,164,*73
$GPGSV,4,4,13,25,07,311,*48
$GLGSV,2,1,06,80,86,207,35,82,70,002,36,73,32,325,41,79,30,151,40*67
$GLGSV,2,2,06,81,25,037,29,65,03,020,*60
$GNRMC,235544.000,A,3935.7948,N,10602.0397,W,0.03,39.34,060126,,,D*5D
$GNGGA,235545.000,3935.7948,N,10602.0397,W,2,15,0.72,2823.9,M,-19.5,M,,*76
$GPGSV,4,1,13,06,74,072,42,11,54,203,40,19,50,053,42,12,44,312,39*78
$GPGSV,4,2,13,48,40,208,39,24,36,249,41,22,30,124,40,17,30,067,34*7F
$GPGSV,4,3,13,20,16,167,24,14,12,129,30,03,08,035,18,21,07,164,*73
$GPGSV,4,4,13,25,07,311,*48
$GLGSV,2,1,06,80,86,207,35,82,70,002,36,73,32,325,41,79,30,151,40*67
$GLGSV,2,2,06,81,25,037,29,65,03,020,*60
$GNRMC,235545.000,A,3935.7948,N,10602.0397,W,0.09,39.34,060126,,,D*56
$GNGGA,235546.000,3935.7948,N,10602.0397,W,2,15,0.72,2824.0,M,-19.5,M,,*7B
$GPGSV,4,1,13,06,74,072,42,11,54,203,40,19,50,053,42,12,44,312,39*78
$GPGSV,4,2,13,48,40,208,39,24,36,249,41,22,30,124,40,17,30,067,34*7F
$GPGSV,4,3,13,20,16,167,24,14,12,129,31,03,08,035,18,21,07,164,*72
$GPGSV,4,4,13,25,07,311,*48
$GLGSV,2,1,06,80,86,207,35,82,70,002,36,73,32,325,41,79,30,151,40*67
$GLGSV,2,2,06,81,25,037,28,65,03,020,*61
$GNRMC,235546.000,A,3935.7948,N,10602.0397,W,0.02,39.34,060126,,,D*5E
$GNGGA,235547.000,3935.7948,N,10602.0397,W,2,15,0.72,2824.1,M,-19.5,M,,*7B
$GPGSV,4,1,13,06,74,072,42,11,54,203,40,19,50,053,42,12,44,312,38*79
$GPGSV,4,2,13,48,40,208,38,24,36,249,41,22,30,124,40,17,30,067,34*7E
$GPGSV,4,3,13,20,16,167,24,14,12,129,31,03,08,035,18,21,07,164,*72
$GPGSV,4,4,13,25,07,311,*48
$GLGSV,2,1,06,80,86,207,35,82,70,002,35,73,32,325,41,79,30,151,40*64
$GLGSV,2,2,06,81,25,037,28,65,03,020,*61
$GNRMC,235547.000,A,3935.7948,N,10602.0397,W,0.10,39.34,060126,,,D*5C
$GNGGA,235548.000,3935.7948,N,10602.0397,W,2,15,0.72,2824.2,M,-19.5,M,,*77
$GPGSV,4,1,13,06,74,072,42,11,54,203,39,19,50,053,42,12,44,312,37*78
$GPGSV,4,2,13,48,40,208,38,24,36,249,41,22,30,124,40,17,30,067,34*7E
$GPGSV,4,3,13,20,16,167,24,14,12,129,31,03,08,035,18,21,07,164,*72
$GPGSV,4,4,13,25,07,311,*48
$GLGSV,2,1,06,80,86,207,35,82,70,002,35,73,32,325,41,79,30,151,40*64
$GLGSV,2,2,06,81,25,037,28,65,03,020,*61
$GNRMC,235548.000,A,3935.7948,N,10602.0397,W,0.09,39.34,060126,,,D*5B
$GNGGA,235549.000,3935.7948,N,10602.0397,W,2,15,0.72,2824.2,M,-19.5,M,,*76
$GPGSV,4,1,13,06,74,072,42,11,54,203,40,19,50,053,42,12,44,312,37*76
$GPGSV,4,2,13,48,40,208,38,24,36,249,41,22,30,124,40,17,30,067,35*7F
$GPGSV,4,3,13,20,16,167,24,14,12,129,32,03,08,035,19,21,07,164,*70
$GPGSV,4,4,13,25,07,311,*48
$GLGSV,2,1,06,80,86,207,35,82,70,002,36,73,32,325,41,79,30,151,40*67
$GLGSV,2,2,06,81,25,037,28,65,03,020,*61
$GNRMC,235549.000,A,3935.7948,N,10602.0397,W,0.07,39.34,060126,,,D*54
$GNGGA,235550.000,3935.7948,N,10602.0397,W,2,15,0.72,2824.3,M,-19.5,M,,*7F
$GPGSV,4,1,13,06,74,069,42,11,54,203,40,19,50,053,42,12,44,312,37*7C
$GPGSV,4,2,13,48,40,208,38,24,36,249,41,22,30,124,40,17,30,067,35*7F
$GPGSV,4,3,13,20,16,167,24,14,12,129,32,03,08,035,19,21,07,164,*70
$GPGSV,4,4,13,25,07,311,*48
$GLGSV,2,1,06,80,86,207,35,82,70,002,36,73,32,325,41,79,30,151,40*67
$GLGSV,2,2,06,81,25,037,28,65,03,020,*61
$GNRMC,235550.000,A,3935.7948,N,10602.0397,W,0.05,39.34,060126,,,D*5E
$GNGGA,235551.000,3935.7948,N,10602.0397,W,2,15,0.72,2824.4,M,-19.5,M,,*79
$GPGSV,4,1,13,06,74,069,42,11,54,203,40,19,50,053,42,12,44,312,37*7C
$GPGSV,4,2,13,48,40,208,38,24,36,249,41,22,30,124,40,17,30,067,35*7F
$GPGSV,4,3,13,20,16,167,24,14,12,129,32,03,08,035,19,21,07,164,*70
$GPGSV,4,4,13,25,07,311,*48
$GLGSV,2,1,06,80,86,207,35,82,70,002,36,73,32,325,41,79,30,151,40*67
$GLGSV,2,2,06,81,25,037,27,65,03,020,*6E
$GNRMC,235551.000,A,3935.7948,N,10602.0397,W,0.15,39.34,060126,,,D*5E
$GNGGA,235552.000,3935.7947,N,10602.0397,W,2,15,0.72,2824.4,M,-19.5,M,,*75
$GPGSV,4,1,13,06,74,069,42,11,54,203,40,19,50,053,42,12,44,312,37*7C
$GPGSV,4,2,13,48,40,208,38,24,36,249,41,22,30,124,40,17,30,067,35*7F
$GPGSV,4,3,13,20,16,167,24,14,12,129,32,03,08,035,19,21,07,164,*70
$GPGSV,4,4,13,25,07,311,*48
$GLGSV,2,1,06,80,86,207,35,82,70,002,36,73,32,325,41,79,30,151,40*67
$GLGSV,2,2,06,81,25,037,27,65,03,020,*6E
$GNRMC,235552.000,A,3935.7947,N,10602.0397,W,0.09,39.34,060126,,,D*5F
$GNGGA,235553.000,3935.7948,N,10602.0397,W,2,15,0.72,2824.5,M,-19.5,M,,*7A
$GPGSV,4,1,13,06,74,069,43,11,54,203,40,19,50,053,42,12,44,312,37*7D
$GPGSV,4,2,13,48,40,208,38,24,36,249,41,22,30,124,40,17,30,067,35*7F
$GPGSV,4,3,13,20,16,167,24,14,12,129,32,03,08,035,19,21,07,164,*70
$GPGSV,4,4,13,25,07,311,*48
$GLGSV,2,1,06,80,86,207,35,82,70,002,36,73,32,325,41,79,30,151,40*67
$GLGSV,2,2,06,81,25,037,27,65,03,020,*6E
$GNRMC,235553.000,A,3935.7948,N,10602.0397,W,0.08,39.34,060126,,,D*50
$GNGGA,235554.000,3935.7948,N,10602.0397,W,2,15,0.72,2824.6,M,-19.5,M,,*7E
$GPGSV,4,1,13,06,74,069,43,11,54,203,40,19,50,053,42,12,44,312,37*7D
$GPGSV,4,2,13,48,40,208,38,24,36,249,41,22,30,124,40,17,30,067,35*7F
$GPGSV,4,3,13,20,16,167,25,14,12,129,32,03,08,035,19,21,07,164,*71
$GPGSV,4,4,13,25,07,311,*48
$GLGSV,2,1,06,80,86,207,35,82,70,002,36,73,32,325,41,79,30,151,40*67
$GLGSV,2,2,06,81,25,037,27,65,03,020,*6E
$GNRMC,235554.000,A,3935.7948,N,10602.0397,W,0.05,39.34,060126,,,D*5A
$GNGGA,235555.000,3935.7948,N,10602.0397,W,2,15,0.72,2824.7,M,-19.5,M,,*7E
$GPGSV,4,1,13,06,74,069,42,11,55,203,40,19,50,053,42,12,44,312,36*7C
$GPGSV,4,2,13,48,40,208,38,24,36,249,41,22,30,124,40,17,30,067,35*7F
$GPGSV,4,3,13,20,16,167,26,14,12,129,31,03,08,035,19,21,07,164,*71
$GPGSV,4,4,13,25,07,311,*48
$GLGSV,2,1,06,80,86,207,35,82,70,002,36,73,32,325,41,79,30,151,39*69
$GLGSV,2,2,06,81,25,037,26,65,03,020,*6F
$GNRMC,235555.000,A,3935.7948,N,10602.0397,W,0.16,39.34,060126,,,D*59
$GNGGA,235556.000,3935.7947,N,10602.0397,W,2,15,0.72,2824.8,M,-19.5,M,,*7D
$GPGSV,4,1,13,06,74,069,41,11,55,203,40,19,50,053,42,12,44,312,36*7F
$GPGSV,4,2,13,48,40,208,38,24,36,249,41,22,30,124,40,17,30,067,35*7F
$GPGSV,4,3,13,20,16,167,26,14,12,129,31,03,08,035,19,21,07,164,*71
$GPGSV,4,4,13,25,07,311,*48
