$GPGSV,3,3,12,14,19,124,28,04,,,20,20,,,27,27,,,21*4D
$GLGSV,2,1,07,73,77,318,35,80,42,145,38,74,28,326,29,84,,,27*50
$GLGSV,2,2,07,83,,,32,84,,,27,82,,,*6B
$GNRMC,233051.000,A,3934.6712,N,10605.4060,W,0.09,156.85,070126,,,A*6F
$GNGGA,233052.000,3934.6712,N,10605.4060,W,1,11,0.91,2762.9,M,-19.4,M,,*7B
$GPGSV,3,1,12,06,77,111,29,19,57,044,38,11,44,200,36,24,40,259,16*79
$GPGSV,3,2,12,22,37,117,31,17,36,061,34,48,36,218,31,12,35,310,34*79
$GPGSV,3,3,12,14,19,124,28,04,,,19,20,,,26,27,,,20*47
$GLGSV,2,1,06,73,77,318,35,80,42,145,38,74,28,326,28,83,,,32*53
$GLGSV,2,2,06,84,,,26,82,,,*61
$GNRMC,233052.000,A,3934.6712,N,10605.4060,W,0.15,156.85,070126,,,A*61
$GNGGA,233053.000,3934.6712,N,10605.4060,W,1,11,0.91,2763.0,M,-19.4,M,,*72
$GPGSV,3,1,12,06,77,111,29,19,57,044,38,11,44,200,35,24,40,259,15*79
$GPGSV,3,2,12,22,37,117,31,17,36,061,34,48,36,218,31,12,35,310,34*79
$GPGSV,3,3,12,14,19,124,28,04,,,19,20,,,26,27,,,21*46
$GLGSV,2,1,06,73,77,318,35,80,42,145,38,74,28,326,28,83,,,32*53
$GLGSV,2,2,06,84,,,25,82,,,*62
$GNRMC,233053.000,A,3934.6712,N,10605.4060,W,0.06,156.85,070126,,,A*62
$GNGGA,233054.000,3934.6712,N,10605.4059,W,1,11,0.91,2763.0,M,-19.4,M,,*7F
$GPGSV,3,1,12,06,77,111,29,19,57,044,37,11,44,200,36,24,40,259,18*78
$GPGSV,3,2,12,22,37,117,31,17,36,061,35,48,36,218,32,12,35,310,33*7C
$GPGSV,3,3,12,14,19,124,28,04,,,19,20,,,26,27,,,21*46
$GLGSV,2,1,06,73,77,318,35,80,42,145,38,74,28,326,28,83,,,32*53
$GLGSV,2,2,06,84,,,25,82,,,*62
$GNRMC,233054.000,A,3934.6712,N,10605.4059,W,0.08,156.85,070126,,,A*61
$GNGGA,233055.000,3934.6712,N,10605.4059,W,1,11,0.91,2763.0,M,-19.4,M,,*7E
$GPGSV,3,1,12,06,77,111,29,19,57,044,37,11,44,200,37,24,40,259,20*72
$GPGSV,3,2,12,22,37,117,30,17,36,061,36,48,36,218,32,12,35,310,33*7E
$GPGSV,3,3,12,14,19,124,29,04,,,19,20,,,26,27,,,20*46
$GLGSV,2,1,06,73,77,318,34,80,42,145,37,74,28,326,28,83,,,32*5D
$GLGSV,2,2,06,84,,,24,82,,,*63
$GNRMC,233055.000,A,3934.6712,N,10605.4059,W,0.07,156.85,070126,,,A*6F
$GNGGA,233056.000,3934.6712,N,10605.4059,W,1,11,0.91,2763.0,M,-19.4,M,,*7D
$GPGSV,3,1,12,06,77,111,28,19,57,044,37,11,44,200,37,24,40,259,20*73
$GPGSV,3,2,12,22,37,117,29,17,36,061,36,48,36,218,32,12,35,310,33*76
$GPGSV,3,3,12,14,19,124,28,04,,,19,20,,,25,27,,,20*44
$GLGSV,2,1,06,73,77,318,34,80,42,145,37,74,28,326,28,83,,,32*5D
$GLGSV,2,2,06,84,,,25,82,,,*62
$GNRMC,233056.000,A,3934.6712,N,10605.4059,W,0.03,156.85,070126,,,A*68
$GNGGA,233057.000,3934.6712,N,10605.4059,W,1,11,0.91,2763.0,M,-19.4,M,,*7C
$GPGSV,3,1,12,06,77,111,28,19,57,044,37,11,44,200,37,24,40,259,19*79
$GPGSV,3,2,12,22,37,117,29,17,36,061,37,48,36,218,32,12,35,310,32*76
$GPGSV,3,3,12,14,19,124,28,04,,,19,20,,,25,27,,,20*44
$GLGSV,2,1,06,73,77,318,34,80,42,145,36,74,28,326,28,83,,,32*5C
$GLGSV,2,2,06,84,,,25,82,,,*62
$GNRMC,233057.000,A,3934.6712,N,10605.4059,W,0.08,156.85,070126,,,A*62
$GNGGA,233058.000,3934.6712,N,10605.4059,W,1,11,0.91,2763.0,M,-19.4,M,,*73
$GPGSV,3,1,12,06,77,111,28,19,57,044,37,11,44,200,37,24,40,259,15*75
$GPGSV,3,2,12,22,37,117,30,17,36,061,36,48,36,218,33,12,35,310,32*7E
$GPGSV,3,3,12,14,19,124,27,04,,,19,20,,,25,27,,,21*4A
$GLGSV,2,1,07,73,77,318,34,80,42,145,36,74,28,326,28,84,,,26*5F
$GLGSV,2,2,07,83,,,32,84,,,26,82,,,*6A
$GNRMC,233058.000,A,3934.6712,N,10605.4059,W,0.01,156.85,070126,,,A*64
$GNGGA,233059.000,3934.6712,N,10605.4059,W,1,11,0.91,2763.1,M,-19.4,M,,*73
$GPGSV,3,1,12,06,77,111,28,19,57,044,37,11,44,200,37,24,40,259,14*74
$GPGSV,3,2,12,22,37,117,30,17,36,061,36,48,36,218,33,12,35,310,32*7E
$GPGSV,3,3,12,14,19,124,27,04,,,19,20,,,24,27,,,21*4B
$GLGSV,2,1,07,73,77,318,34,80,42,145,37,74,28,326,29,84,,,27*5E
$GLGSV,2,2,07,83,,,32,84,,,27,82,,,*6B
$GNRMC,233059.000,A,3934.6712,N,10605.4059,W,0.01,156.85,070126,,,A*65
$GNGGA,233100.000,3934.6712,N,10605.4059,W,1,11,0.91,2763.1,M,-19.4,M,,*7E
$GPGSV,3,1,12,06,77,111,28,19,57,044,37,11,44,200,36,24,40,259,14*75
$GPGSV,3,2,12,22,37,117,30,17,36,061,36,48,36,218,33,12,35,310,32*7E
$GPGSV,3,3,12,14,19,124,27,04,,,19,20,,,24,27,,,21*4B
$GLGSV,2,1,07,73,77,318,35,80,42,145,37,74,28,326,29,84,,,27*5F
$GLGSV,2,2,07,83,,,32,84,,,27,82,,,*6B
$GNRMC,233100.000,A,3934.6712,N,10605.4059,W,0.01,156.85,070126,,,A*68
$GNGGA,233101.000,3934.6712,N,10605.4059,W,1,12,0.84,2763.1,M,-19.4,M,,*78
$GPGSV,3,1,12,06,77,111,28,19,57,044,37,11,44,200,37,24,40,259,15*75
$GPGSV,3,2,12,22,37,117,30,17,36,061,36,48,36,218,34,12,35,310,32*79
$GPGSV,3,3,12,14,19,124,28,20,08,171,24,04,,,19,27,,,21*7B
$GLGSV,2,1,07,73,77,318,35,80,42,145,37,74,28,326,29,84,,,27*5F
$GLGSV,2,2,07,83,,,32,84,,,27,82,,,*6B
$GNRMC,233101.000,A,3934.6712,N,10605.4059,W,0.01,156.85,070126,,,A*69
$GNGGA,233102.000,3934.6712,N,10605.4059,W,1,12,0.84,2763.0,M,-19.4,M,,*7A
$GPGSV,3,1,12,06,77,111,29,19,57,044,36,11,44,200,37,24,40,259,18*78
$GPGSV,3,2,12,22,37,117,29,17,36,061,36,48,36,218,35,12,35,310,32*70
$GPGSV,3,3,12,14,19,124,28,20,08,171,24,04,,,20,27,,,21*71
$GLGSV,2,1,07,73,77,318,35,80,42,145,37,74,28,326,30,84,,,28*58
$GLGSV,2,2,07,83,,,33,84,,,28,82,,,*65
$GNRMC,233102.000,A,3934.6712,N,10605.4059,W,0.04,156.85,070126,,,A*6F
$GNGGA,233103.000,3934.6712,N,10605.4059,W,1,12,0.84,2763.1,M,-19.4,M,,*7A
$GPGSV,3,1,12,06,77,111,31,19,57,044,34,11,44,200,37,24,40,259,34*7D
$GPGSV,3,2,12,22,37,117,36,17,36,061,29,48,36,218,35,12,35,310,32*70
$GPGSV,3,3,12,14,19,124,27,20,08,171,24,04,,,20,27,,,21*7E
$GLGSV,2,1,06,73,77,318,35,80,42,145,36,74,28,326,29,83,,,40*59
$GLGSV,2,2,06,84,,,28,82,,,*6F
$GNRMC,233103.000,A,3934.6712,N,10605.4059,W,0.29,156.85,070126,,,A*61
$GNGGA,233104.000,3934.6712,N,10605.4059,W,1,11,0.91,2763.1,M,-19.4,M,,*7A
$GPGSV,3,1,12,06,77,111,32,19,57,044,27,11,44,200,30,24,40,259,32*7D
$GPGSV,3,2,12,22,37,117,28,17,36,061,28,48,36,218,34,12,35,310,31*7C
$GPGSV,3,3,12,14,19,124,25,20,08,171,23,04,,,19,27,,,21*71
$GLGSV,2,1,06,73,77,318,21,80,42,145,21,74,28,326,20,83,,,28*5D
$GLGSV,2,2,06,84,,,26,82,,,*61
$GNRMC,233104.000,A,3934.6712,N,10605.4059,W,0.53,156.85,070126,,,A*6B
$GNGGA,233105.000,3934.6711,N,10605.4061,W,1,11,0.91,2763.1,M,-19.4,M,,*73
$GPGSV,3,1,12,06,77,111,32,19,57,044,28,11,44,200,30,24,40,259,31*71
$GPGSV,3,2,12,22,37,117,29,17,36,061,27,48,36,218,33,12,35,310,31*75
$GPGSV,3,3,12,14,19,124,24,20,08,171,21,04,,,19,27,,,21*72
$GLGSV,2,1,06,73,77,318,22,80,42,145,28,74,28,326,,83,,,28*55
$GLGSV,2,2,06,84,,,25,82,,,*62
$GNRMC,233105.000,A,3934.6711,N,10605.4061,W,0.61,204.31,070126,,,A*68
$GNGGA,233106.000,3934.6710,N,10605.4062,W,1,11,0.91,2763.3,M,-19.4,M,,*70
$GPGSV,3,1,12,06,77,111,31,19,57,044,29,11,44,200,31,24,40,259,24*76
$GPGSV,3,2,12,22,37,117,30,17,36,061,27,48,36,218,32,12,35,310,32*7F
$GPGSV,3,3,12,14,19,124,24,20,08,171,20,04,,,18,27,,,21*72
$GLGSV,2,1,06,73,77,318,23,80,42,145,28,74,28,326,,83,,,28*54
$GLGSV,2,2,06,84,,,24,82,,,*63
$GNRMC,233106.000,A,3934.6710,N,10605.4062,W,0.56,204.31,070126,,,A*6D
$GNGGA,233107.000,3934.6709,N,10605.4062,W,1,11,0.91,2763.3,M,-19.4,M,,*79
$GPGSV,3,1,12,06,77,111,26,19,57,044,27,11,44,200,32,24,40,259,26*7F
$GPGSV,3,2,12,22,37,117,29,17,36,061,26,48,36,218,31,12,35,310,32*75
$GPGSV,3,3,12,14,19,124,24,20,08,171,19,04,,,18,27,,,21*78
$GLGSV,2,1,06,73,77,318,31,80,42,145,30,74,28,326,,83,,,30*57
$GLGSV,2,2,06,84,,,25,82,,,*62
$GNRMC,233107.000,A,3934.6709,N,10605.4062,W,0.41,204.31,070126,,,A*62
$GNGGA,233108.000,3934.6709,N,10605.4064,W,1,11,0.91,2763.2,M,-19.4,M,,*71
$GPGSV,3,1,12,06,77,111,27,19,57,044,26,11,44,200,32,24,40,259,27*7E
$GPGSV,3,2,12,22,37,117,28,17,36,061,25,48,36,218,31,12,35,310,32*77
$GPGSV,3,3,12,14,19,124,23,20,08,171,19,04,,,18,27,,,20*7E
$GLGSV,2,1,06,73,78,316,31,80,42,145,32,74,28,326,,83,,,32*56
$GLGSV,2,2,06,84,,,26,82,,,29*6A
$GNRMC,233108.000,A,3934.6709,N,10605.4064,W,0.41,204.31,070126,,,A*6B
$GNGGA,233109.000,3934.6708,N,10605.4063,W,1,11,0.91,2763.3,M,-19.4,M,,*77
$GPGSV,3,1,12,06,77,111,34,19,57,044,28,11,44,200,31,24,40,259,26*70
$GPGSV,3,2,12,22,37,117,30,17,36,061,26,48,36,218,29,12,35,310,32*74
$GPGSV,3,3,12,14,19,124,23,20,08,171,18,04,,,18,27,,,21*7E
$GLGSV,2,1,06,73,78,316,30,80,42,145,31,74,28,326,,83,,,32*54
$GLGSV,2,2,06,84,,,27,82,,,28*6A
$GNRMC,233109.000,A,3934.6708,N,10605.4063,W,0.28,204.31,070126,,,A*63
$GNGGA,233110.000,3934.6708,N,10605.4064,W,1,12,0.84,2763.3,M,-19.4,M,,*7F
$GPGSV,3,1,12,06,77,111,33,19,57,044,26,11,44,200,32,24,40,259,34*79
$GPGSV,3,2,12,22,37,117,32,17,36,061,26,48,36,218,31,12,35,310,33*7E
$GPGSV,3,3,12,14,19,124,24,20,08,171,18,04,,,19,27,,,21*78
$GLGSV,2,1,06,73,78,316,31,80,42,145,39,74,28,326,23,83,,,34*5A
$GLGSV,2,2,06,84,,,28,82,,,26*6B
$GNRMC,233110.000,A,3934.6708,N,10605.4064,W,0.23,204.31,070126,,,A*67
$GNGGA,233111.000,3934.6708,N,10605.4064,W,1,12,0.84,2763.3,M,-19.4,M,,*7E
$GPGSV,3,1,12,06,77,111,25,19,57,044,27,11,44,200,34,24,40,259,34*79
$GPGSV,3,2,12,22,37,117,33,17,36,061,27,48,36,218,33,12,35,310,34*7B
$GPGSV,3,3,12,14,19,124,26,20,08,171,17,04,,,19,27,,,21*75
$GLGSV,2,1,06,73,78,316,32,80,42,145,39,74,28,326,31,83,,,35*5B
$GLGSV,2,2,06,84,,,35,82,,,24*65
$GNRMC,233111.000,A,3934.6708,N,10605.4064,W,0.29,204.31,070126,,,A*6C
$GNGGA,233112.000,3934.6707,N,10605.4064,W,1,12,0.84,2763.3,M,-19.4,M,,*72
$GPGSV,3,1,12,06,77,111,26,19,57,044,28,11,44,200,35,24,40,259,34*74
$GPGSV,3,2,12,22,37,117,33,17,36,061,28,48,36,218,34,12,35,310,34*73
$GPGSV,3,3,12,14,19,124,27,20,08,171,16,04,,,19,27,,,21*75
$GLGSV,2,1,06,73,78,316,33,80,42,145,39,74,28,326,34,83,,,37*5D
$GLGSV,2,2,06,84,,,35,82,,,17*65
$GNRMC,233112.000,A,3934.6707,N,10605.4064,W,0.14,204.31,070126,,,A*6E
$GNGGA,233113.000,3934.6707,N,10605.4063,W,1,12,0.84,2763.3,M,-19.4,M,,*74
$GPGSV,3,1,12,06,77,111,26,19,57,044,29,11,44,200,36,24,40,259,34*76
$GPGSV,3,2,12,22,37,117,34,17,36,061,29,48,36,218,35,12,35,310,34*74
$GPGSV,3,3,12,14,19,124,28,20,08,171,13,04,,,19,27,,,21*7F
$GLGSV,2,1,07,73,78,316,33,80,42,145,39,74,28,326,32,83,,,37*5A
$GLGSV,2,2,07,84,,,35,82,,,17,84,,,35*6E
$GNRMC,233113.000,A,3934.6707,N,10605.4063,W,0.25,204.31,070126,,,A*6A
$GNGGA,233114.000,3934.6707,N,10605.4064,W,1,12,0.84,2763.3,M,-19.4,M,,*74
$GPGSV,3,1,12,06,77,111,27,19,57,044,29,11,44,200,38,24,40,259,34*79
$GPGSV,3,2,12,22,37,117,34,17,36,061,29,48,36,218,36,12,35,310,34*77
$GPGSV,3,3,12,14,19,124,28,20,08,171,17,04,,,19,27,,,21*7B
$GLGSV,2,1,06,73,78,316,34,80,42,145,39,74,28,326,33,83,,,38*52
$GLGSV,2,2,06,84,,,34,82,,,16*65
$GNRMC,233114.000,A,3934.6707,N,10605.4064,W,0.15,204.31,070126,,,A*69
$GNGGA,233115.000,3934.6708,N,10605.4064,W,1,12,0.84,2763.3,M,-19.4,M,,*7A
$GPGSV,3,1,12,06,77,111,26,19,57,044,30,11,44,200,38,24,40,259,33*77
$GPGSV,3,2,12,22,37,117,34,17,36,061,28,48,36,218,36,12,35,310,34*76
$GPGSV,3,3,12,14,19,124,26,20,08,171,14,04,,,19,27,,,21*76
$GLGSV,2,1,06,73,78,316,34,80,42,145,39,74,28,326,33,83,,,38*52
$GLGSV,2,2,06,84,,,34,82,,,16*65
$GNRMC,233115.000,A,3934.6708,N,10605.4064,W,0.14,204.31,070126,,,A*66
$GNGGA,233116.000,3934.6708,N,10605.4064,W,1,12,0.84,2763.2,M,-19.4,M,,*78
$GPGSV,3,1,12,06,77,111,26,19,57,044,31,11,44,200,38,24,40,259,34*71
$GPGSV,3,2,12,22,37,117,33,17,36,061,28,48,36,218,36,12,35,310,35*70
$GPGSV,3,3,12,14,19,124,27,20,08,171,14,04,,,19,27,,,22*74
$GLGSV,2,1,06,73,78,316,34,80,41,145,39,74,28,326,34,83,,,37*59
$GLGSV,2,2,06,84,,,35,82,,,18*6A
$GNRMC,233116.000,A,3934.6708,N,10605.4064,W,0.11,204.31,070126,,,A*60
$GNGGA,233117.000,3934.6708,N,10605.4064,W,1,12,0.84,2763.2,M,-19.4,M,,*79
$GPGSV,3,1,12,06,77,111,27,19,57,044,31,11,44,200,37,24,40,259,34*7F
$GPGSV,3,2,12,22,37,117,32,17,36,061,28,48,36,218,35,12,35,310,36*71
$GPGSV,3,3,12,14,19,124,27,20,08,171,12,04,,,19,27,,,23*73
$GLGSV,2,1,06,73,78,316,33,80,41,145,39,74,28,326,34,83,,,37*5E
$GLGSV,2,2,06,84,,,35,82,,,19*6B
$GNRMC,233117.000,A,3934.6708,N,10605.4064,W,0.24,204.31,070126,,,A*67
$GNGGA,233118.000,3934.6708,N,10605.4065,W,1,11,0.91,2763.3,M,-19.4,M,,*71
$GPGSV,3,1,12,06,77,111,28,19,57,044,32,11,44,200,24,24,40,259,33*76
$GPGSV,3,2,12,22,37,117,32,17,36,061,29,48,36,218,27,12,35,310,37*72
$GPGSV,3,3,12,14,19,124,28,20,08,171,15,04,,,19,27,,,22*7A
$GLGSV,2,1,06,73,78,316,33,80,41,145,38,74,28,326,27,83,,,37*5D
$GLGSV,2,2,06,84,,,23,82,,,29*6F
$GNRMC,233118.000,A,3934.6708,N,10605.4065,W,0.41,204.31,070126,,,A*6A
$GNGGA,233119.000,3934.6707,N,10605.4066,W,1,11,0.91,2763.3,M,-19.4,M,,*7C
$GPGSV,3,1,12,06,77,111,45,19,57,044,39,11,44,200,31,24,40,259,34*75
$GPGSV,3,2,12,22,37,117,31,17,36,061,28,48,36,218,28,12,35,310,38*70
$GPGSV,3,3,12,14,19,124,27,20,08,171,23,04,,,19,27,,,21*73
$GLGSV,2,1,06,73,78,316,32,80,41,145,31,74,28,326,28,83,,,27*5B
$GLGSV,2,2,06,84,,,23,82,,,37*60
$GNRMC,233119.000,A,3934.6707,N,10605.4066,W,0.36,204.31,070126,,,A*67
$GNGGA,233120.000,3934.6706,N,10605.4066,W,1,11,0.91,2763.3,M,-19.4,M,,*77
$GPGSV,3,1,12,06,77,111,44,19,57,044,38,11,44,200,32,24,40,259,33*71
$GPGSV,3,2,12,22,37,117,32,17,36,061,29,48,36,218,28,12,35,310,39*73
$GPGSV,3,3,12,14,19,124,20,20,08,171,17,04,,,19,27,,,21*73
$GLGSV,2,1,06,73,78,316,31,80,41,145,33,74,28,326,28,83,,,26*5B
$GLGSV,2,2,06,84,,,22,82,,,35*63
$GNRMC,233120.000,A,3934.6706,N,10605.4066,W,0.30,204.31,070126,,,A*6A
$GNGGA,233121.000,3934.6706,N,10605.4067,W,1,11,0.91,2763.3,M,-19.4,M,,*77
$GPGSV,3,1,12,06,77,111,34,19,57,044,37,11,44,200,40,24,40,259,26*78
$GPGSV,3,2,12,22,37,117,32,17,36,061,31,48,36,218,35,12,35,310,40*78
$GPGSV,3,3,12,14,19,124,31,20,08,171,20,04,,,19,27,,,22*74
$GLGSV,2,1,06,73,78,316,29,80,41,145,32,74,28,326,29,83,,,33*56
$GLGSV,2,2,06,84,,,32,82,,,26*60
$GNRMC,233121.000,A,3934.6706,N,10605.4067,W,0.32,204.31,070126,,,A*68
$GNGGA,233122.000,3934.6706,N,10605.4067,W,1,12,0.84,2763.3,M,-19.4,M,,*73
$GPGSV,3,1,12,06,77,111,35,19,57,044,38,11,44,200,40,24,40,259,28*78
$GPGSV,3,2,12,22,37,117,32,17,36,061,33,48,36,218,34,12,35,310,39*75
$GPGSV,3,3,12,14,19,124,29,20,08,171,25,04,,,19,27,,,22*78
$GLGSV,2,1,06,73,78,316,29,80,41,145,33,74,28,326,31,83,,,24*58
$GLGSV,2,2,06,84,,,25,82,,,26*66
$GNRMC,233122.000,A,3934.6706,N,10605.4067,W,0.18,204.31,070126,,,A*63
$GNGGA,233123.000,3934.6705,N,10605.4067,W,1,11,0.91,2763.3,M,-19.4,M,,*76
$GPGSV,3,1,12,06,77,111,46,19,57,044,35,11,44,200,38,24,40,259,35*72
$GPGSV,3,2,12,22,37,117,32,17,36,061,34,48,36,218,35,12,35,310,38*72
$GPGSV,3,3,12,14,19,124,20,20,08,171,24,04,,,19,27,,,21*73
$GLGSV,2,1,06,73,78,316,30,80,41,145,32,74,28,326,22,83,,,40*51
$GLGSV,2,2,06,84,,,27,82,,,26*64
$GNRMC,233123.000,A,3934.6705,N,10605.4067,W,0.13,204.31,070126,,,A*6A
$GNGGA,233124.000,3934.6705,N,10605.4067,W,1,11,0.88,2763.4,M,-19.4,M,,*7E
$GPGSV,3,1,12,06,77,111,38,19,57,044,29,11,44,200,30,24,40,259,27*7D
$GPGSV,3,2,12,22,37,117,25,17,36,061,33,48,36,218,34,12,35,310,26*7D
$GPGSV,3,3,12,14,19,124,21,20,08,171,25,04,,,18,27,,,20*73
$GLGSV,2,1,06,73,78,316,28,80,41,145,24,74,28,326,21,83,,,32*59
$GLGSV,2,2,06,84,,,26,82,,,28*6B
$GNRMC,233124.000,A,3934.6705,N,10605.4067,W,0.19,204.31,070126,,,A*67
$GNGGA,233125.000,3934.6705,N,10605.4067,W,1,12,0.84,2763.6,M,-19.4,M,,*72
$GPGSV,3,1,12,06,77,111,38,19,57,044,36,11,44,200,32,24,40,259,29*7F
$GPGSV,3,2,12,22,37,117,33,17,36,061,23,48,36,218,33,12,35,310,26*7C
$GPGSV,3,3,12,14,19,124,21,20,08,171,24,04,,,17,27,,,18*76
$GLGSV,2,1,06,73,78,316,28,80,41,145,35,74,28,326,21,83,,,33*58
$GLGSV,2,2,06,84,,,27,82,,,27*65
$GNRMC,233125.000,A,3934.6705,N,10605.4067,W,0.13,204.31,070126,,,A*6C
$GNGGA,233126.000,3934.6705,N,10605.4066,W,1,12,0.84,2763.7,M,-19.4,M,,*71
$GPGSV,3,1,12,06,77,111,37,19,57,044,28,11,44,200,32,24,40,259,30*77
$GPGSV,3,2,12,22,37,117,32,17,36,061,24,48,36,218,32,12,35,310,27*7A
$GPGSV,3,3,12,14,19,124,20,20,08,171,17,04,,,16,27,,,18*76
$GLGSV,2,1,06,73,78,316,29,80,41,145,28,74,28,326,20,83,,,34*53
$GLGSV,2,2,06,84,,,27,82,,,26*64
$GNRMC,233126.000,A,3934.6705,N,10605.4066,W,0.18,204.31,070126,,,A*65
$GNGGA,233127.000,3934.6705,N,10605.4064,W,1,12,0.84,2763.7,M,-19.4,M,,*72
$GPGSV,3,1,12,06,77,111,37,19,57,044,31,11,44,200,32,24,40,259,32*7D
$GPGSV,3,2,12,22,37,117,33,17,36,061,25,48,36,218,32,12,35,310,28*75
$GPGSV,3,3,12,14,19,124,18,20,08,171,17,04,,,17,27,,,18*7C
$GLGSV,2,1,06,73,78,316,28,80,41,145,27,74,28,326,19,83,,,34*57
$GLGSV,2,2,06,84,,,28,82,,,26*6B
$GNRMC,233127.000,A,3934.6705,N,10605.4064,W,0.37,204.31,070126,,,A*6B
$GNGGA,233128.000,3934.6704,N,10605.4063,W,1,12,0.84,2763.7,M,-19.4,M,,*7B
$GPGSV,3,1,12,06,77,111,36,19,57,044,25,11,44,200,26,24,40,259,31*7F
$GPGSV,3,2,12,22,37,117,31,17,36,061,23,48,36,218,30,12,35,310,28*73
$GPGSV,3,3,12,14,19,124,16,20,08,171,17,04,,,17,27,,,18*72
$GLGSV,2,1,06,73,78,316,28,80,41,145,26,74,28,326,18,83,,,33*50
$GLGSV,2,2,06,84,,,26,82,,,25*66
$GNRMC,233128.000,A,3934.6704,N,10605.4063,W,0.59,143.19,070126,,,A*60
$GNGGA,233129.000,3934.6702,N,10605.4063,W,1,12,0.84,2763.8,M,-19.4,M,,*73
$GPGSV,3,1,12,06,77,111,35,19,57,044,25,11,44,200,26,24,40,259,30*7D
$GPGSV,3,2,12,22,37,117,30,17,36,061,22,48,36,218,29,12,35,310,28*7B
$GPGSV,3,3,12,14,19,124,15,20,08,171,16,04,,,16,27,,,17*7E
$GLGSV,2,1,06,73,78,316,28,80,41,145,24,74,28,326,17,83,,,32*5C
$GLGSV,2,2,06,84,,,24,82,,,23*62
$GNRMC,233129.000,A,3934.6702,N,10605.4063,W,0.78,180.25,070126,,,A*64
$GNGGA,233130.000,3934.6701,N,10605.4063,W,1,11,0.91,2763.9,M,-19.4,M,,*7E
$GPGSV,3,1,12,06,77,111,34,19,57,044,25,11,44,200,26,24,40,259,30*7C
$GPGSV,3,2,12,22,37,117,29,17,36,061,21,48,36,218,30,12,35,310,27*77
$GPGSV,3,3,12,14,19,124,16,20,08,171,15,04,,,15,27,,,17*7D
$GLGSV,2,1,06,73,78,316,28,80,41,145,26,74,28,326,13,83,,,32*5A
$GLGSV,2,2,06,84,,,23,82,,,23*65
$GNRMC,233130.000,A,3934.6701,N,10605.4063,W,0.66,194.18,070126,,,A*6B
$GNGGA,233131.000,3934.6702,N,10605.4064,W,1,11,0.91,2764.1,M,-19.4,M,,*74
$GPGSV,3,1,12,06,77,111,26,19,57,044,24,11,44,200,26,24,40,259,30*7E
$GPGSV,3,2,12,22,37,117,36,17,36,061,22,48,36,218,28,12,35,310,27*73
$GPGSV,3,3,12,14,19,124,26,20,08,171,16,04,,,14,27,,,16*7D
$GLGSV,2,1,06,73,78,316,29,80,41,145,34,74,28,326,15,83,,,31*5D
$GLGSV,2,2,06,84,,,32,82,,,36*61
$GNRMC,233131.000,A,3934.6702,N,10605.4064,W,0.65,280.72,070126,,,A*67
$GNGGA,233132.000,3934.6701,N,10605.4068,W,1,11,0.91,2764.2,M,-19.4,M,,*7B
$GPGSV,3,1,12,06,77,111,41,19,57,044,25,11,44,200,36,24,40,259,28*76
$GPGSV,3,2,12,22,37,117,20,17,36,061,24,48,36,218,30,12,35,310,28*74
$GPGSV,3,3,12,14,19,124,17,20,08,171,17,04,,,14,27,,,16*7E
$GLGSV,2,1,06,73,78,316,30,80,41,145,35,74,28,326,20,83,,,30*53
$GLGSV,2,2,06,84,,,32,82,,,34*63
$GNRMC,233132.000,A,3934.6701,N,10605.4068,W,1.46,256.69,070126,,,A*6A
$GNGGA,233133.000,3934.6701,N,10605.4072,W,1,12,0.84,2764.3,M,-19.4,M,,*77
$GPGSV,3,1,12,06,77,111,40,19,57,044,35,11,44,200,37,24,40,259,28*77
$GPGSV,3,2,12,22,37,117,22,17,36,061,24,48,36,218,31,12,35,310,28*77
$GPGSV,3,3,12,14,19,124,20,20,08,171,25,04,,,14,27,,,15*78
$GLGSV,2,1,06,73,78,316,32,80,41,145,36,74,28,326,19,83,,,31*59
$GLGSV,2,2,06,84,,,34,82,,,34*65
$GNRMC,233133.000,A,3934.6701,N,10605.4072,W,1.46,278.65,070126,,,A*60
$GNGGA,233134.000,3934.6705,N,10605.4074,W,1,12,0.84,2764.4,M,-19.4,M,,*75
$GPGSV,3,1,12,06,77,111,40,19,57,044,36,11,44,200,37,24,40,259,30*7D
$GPGSV,3,2,12,22,37,117,40,17,36,061,39,48,36,218,33,12,35,310,30*74
$GPGSV,3,3,12,14,19,124,26,20,08,171,25,04,,,14,27,,,15*7E
$GLGSV,2,1,06,73,78,316,34,80,41,145,35,74,28,326,25,83,,,38*5A
$GLGSV,2,2,06,84,,,36,82,,,33*60
$GNRMC,233134.000,A,3934.6705,N,10605.4074,W,1.62,313.10,070126,,,A*6D
$GNGGA,233135.000,3934.6709,N,10605.4074,W,1,12,0.84,2764.5,M,-19.4,M,,*79
$GPGSV,3,1,12,06,77,111,39,19,57,044,35,11,44,200,29,24,40,259,32*7D
$GPGSV,3,2,12,22,37,117,38,17,36,061,29,48,36,218,31,12,35,310,30*78
$GPGSV,3,3,12,14,19,124,27,20,08,171,24,04,,,13,27,,,15*79
$GLGSV,2,1,06,73,78,316,36,80,41,145,37,74,28,326,25,83,,,39*5B
$GLGSV,2,2,06,84,,,29,82,,,34*69
$GNRMC,233135.000,A,3934.6709,N,10605.4074,W,1.13,40.37,070126,,,A*56
$GNGGA,233136.000,3934.6714,N,10605.4072,W,1,12,0.84,2764.3,M,-19.4,M,,*76
$GPGSV,3,1,12,06,77,111,38,19,57,044,27,11,44,200,40,24,40,259,31*73
$GPGSV,3,2,12,22,37,117,37,17,36,061,30,48,36,218,33,12,35,310,40*7A
$GPGSV,3,3,12,14,19,124,27,20,08,171,25,04,,,13,27,,,14*79
$GLGSV,2,1,06,73,78,316,37,80,41,145,36,74,28,326,25,83,,,39*5B
$GLGSV,2,2,06,84,,,30,82,,,35*60
$GNRMC,233136.000,A,3934.6714,N,10605.4072,W,1.09,64.53,070126,,,A*50
$GNGGA,233137.000,3934.6716,N,10605.4068,W,1,12,0.84,2764.5,M,-19.4,M,,*78
$GPGSV,3,1,12,06,77,111,30,19,57,044,26,11,44,200,40,24,40,259,32*79
$GPGSV,3,2,12,22,37,117,36,17,36,061,31,48,36,218,40,12,35,310,40*7E
$GPGSV,3,3,12,14,19,124,26,20,08,171,23,04,,,13,27,,,13*79
$GLGSV,2,1,06,73,78,316,38,80,41,145,35,74,28,326,32,83,,,40*5F
$GLGSV,2,2,06,84,,,44,82,,,35*63
$GNRMC,233137.000,A,3934.6716,N,10605.4068,W,0.86,74.59,070126,,,A*55
$GNGGA,233138.000,3934.6718,N,10605.4064,W,1,12,0.84,2764.6,M,-19.4,M,,*76
$GPGSV,3,1,11,06,77,111,38,19,57,044,33,11,44,200,39,24,40,259,34*7E
$GPGSV,3,2,11,22,37,117,37,17,36,061,29,48,36,218,39,12,35,310,36*7A
$GPGSV,3,3,11,14,19,124,26,20,08,171,22,27,,,12*7C
$GLGSV,2,1,06,73,78,316,39,80,41,145,37,74,28,326,33,83,,,40*5D
$GLGSV,2,2,06,84,,,44,82,,,36*60
$GNRMC,233138.000,A,3934.6718,N,10605.4064,W,0.93,77.54,070126,,,A*52
$GNGGA,233139.000,3934.6718,N,10605.4061,W,1,12,0.84,2764.8,M,-19.4,M,,*7C
$GPGSV,3,1,10,06,77,111,37,19,57,044,34,11,44,200,39,24,40,259,35*76
$GPGSV,3,2,10,22,37,117,36,17,36,061,31,48,36,218,38,12,35,310,36*72
$GPGSV,3,3,10,14,19,124,27,20,08,171,22*7A
$GLGSV,2,1,06,73,78,316,39,80,41,145,35,74,28,326,31,83,,,40*5D
$GLGSV,2,2,06,84,,,42,82,,,37*67
$GNRMC,233139.000,A,3934.6718,N,10605.4061,W,0.52,77.54,070126,,,A*5B
$GNGGA,233140.000,3934.6718,N,10605.4060,W,1,12,0.84,2764.8,M,-19.4,M,,*73
$GPGSV,3,1,10,06,77,111,38,19,57,044,34,11,44,200,39,24,40,259,21*7C
$GPGSV,3,2,10,22,37,117,34,17,36,061,32,48,36,218,38,12,35,310,37*72
$GPGSV,3,3,10,14,19,124,28,20,08,171,22*75
$GLGSV,2,1,06,73,78,316,40,80,41,145,36,74,28,326,33,83,,,40*52
$GLGSV,2,2,06,84,,,28,82,,,39*65
$GNRMC,233140.000,A,3934.6718,N,10605.4060,W,0.25,77.54,070126,,,A*54
$GNGGA,233141.000,3934.6719,N,10605.4060,W,1,12,0.84,2764.9,M,-19.4,M,,*72
$GPGSV,3,1,10,06,77,111,39,19,57,044,35,11,44,200,37,24,40,259,22*71
$GPGSV,3,2,10,22,37,117,36,17,36,061,31,48,36,218,38,12,35,310,37*73
$GPGSV,3,3,10,14,19,124,27,20,08,171,23*7B
$GLGSV,2,1,06,73,78,316,40,80,41,145,36,74,28,326,24,83,,,41*55
$GLGSV,2,2,06,84,,,37,82,,,39*6B
$GNRMC,233141.000,A,3934.6719,N,10605.4060,W,0.53,77.54,070126,,,A*55
$GNGGA,233142.000,3934.6718,N,10605.4059,W,1,12,0.84,2764.9,M,-19.4,M,,*7A
$GPGSV,3,1,11,06,77,111,40,19,57,044,35,11,44,200,36,24,40,259,23*7E
$GPGSV,3,2,11,22,37,117,34,17,36,061,33,48,36,218,37,12,35,310,37*7D
$GPGSV,3,3,11,14,19,124,36,20,08,171,23,03,,,26*7D
$GLGSV,2,1,06,73,78,316,33,80,41,145,36,74,28,326,23,83,,,40*57
$GLGSV,2,2,06,84,,,30,82,,,39*6C
$GNRMC,233142.000,A,3934.6718,N,10605.4059,W,0.35,77.54,070126,,,A*5D
$GNGGA,233143.000,3934.6717,N,10605.4059,W,1,12,0.84,2764.9,M,-19.4,M,,*74
$GPGSV,3,1,11,06,77,111,40,19,57,044,37,11,44,200,38,24,40,259,24*75
$GPGSV,3,2,11,22,37,117,41,17,36,061,34,48,36,218,36,12,35,310,29*76
$GPGSV,3,3,11,14,19,124,26,20,08,171,22,03,,,22*79
$GLGSV,2,1,06,73,78,316,35,80,41,145,28,74,28,326,24,83,,,40*59
$GLGSV,2,2,06,84,,,28,82,,,29*64
$GNRMC,233143.000,A,3934.6717,N,10605.4059,W,0.47,77.54,070126,,,A*56
$GNGGA,233144.000,3934.6717,N,10605.4058,W,1,12,0.84,2764.9,M,-19.4,M,,*72
$GPGSV,3,1,11,06,77,111,22,19,57,044,35,11,44,200,37,24,40,259,22*7A
$GPGSV,3,2,11,22,37,117,29,17,36,061,34,48,36,218,34,12,35,310,37*75
$GPGSV,3,3,11,14,19,124,24,20,08,171,22,03,,,33*7B
$GLGSV,2,1,06,73,78,316,36,80,41,145,27,74,28,326,24,83,,,39*5B
$GLGSV,2,2,06,84,,,30,82,,,29*6D
$GNRMC,233144.000,A,3934.6717,N,10605.4058,W,0.26,77.54,070126,,,A*57
$GNGGA,233145.000,3934.6718,N,10605.4057,W,1,11,0.91,2764.9,M,-19.4,M,,*74
$GPGSV,3,1,11,06,77,111,38,19,57,044,37,11,44,200,37,24,40,259,21*70
$GPGSV,3,2,11,22,37,117,41,17,36,061,35,48,36,218,33,12,35,310,37*7D
$GPGSV,3,3,11,14,19,124,39,20,08,171,23,03,,,33*76
$GLGSV,2,1,06,73,78,316,38,80,41,145,29,74,28,326,22,83,,,39*5D
$GLGSV,2,2,06,84,,,31,82,,,30*64
$GNRMC,233145.000,A,3934.6718,N,10605.4057,W,0.29,77.54,070126,,,A*59
$GNGGA,233146.000,3934.6718,N,10605.4057,W,1,12,0.84,2764.8,M,-19.4,M,,*71
$GPGSV,3,1,11,06,77,111,41,19,57,044,39,11,44,200,37,24,40,259,28*79
$GPGSV,3,2,11,22,37,117,41,17,36,061,42,48,36,218,33,12,35,310,39*73
$GPGSV,3,3,11,14,19,124,39,20,08,171,23,03,,,38*7D
$GLGSV,2,1,06,73,78,316,39,80,41,145,36,74,28,326,33,83,,,40*5C
$GLGSV,2,2,06,84,,,41,82,,,42*66
$GNRMC,233146.000,A,3934.6718,N,10605.4057,W,0.21,77.54,070126,,,A*52
$GNGGA,233147.000,3934.6718,N,10605.4057,W,1,12,0.84,2764.8,M,-19.4,M,,*70
$GPGSV,3,1,11,06,77,111,41,19,57,044,40,11,44,200,37,24,40,259,30*7E
$GPGSV,3,2,11,22,37,117,41,17,36,061,42,48,36,218,33,12,35,310,40*7D
$GPGSV,3,3,11,14,19,124,39,20,08,171,22,03,,,38*7C
$GLGSV,2,1,06,73,78,316,39,80,41,145,36,74,28,326,34,83,,,41*5A
$GLGSV,2,2,06,84,,,40,82,,,42*67
$GNRMC,233147.000,A,3934.6718,N,10605.4057,W,0.13,77.54,070126,,,A*52
$GNGGA,233148.000,3934.6718,N,10605.4057,W,1,11,0.93,2764.9,M,-19.4,M,,*7B
$GPGSV,3,1,11,06,77,111,40,19,57,044,39,11,44,200,36,24,40,259,29*78
$GPGSV,3,2,11,22,37,117,40,17,36,061,40,48,36,218,33,12,35,310,39*70
$GPGSV,3,3,11,14,19,124,38,20,08,171,21,03,,,35*73
$GLGSV,2,1,06,73,78,316,38,80,41,145,29,74,28,326,27,83,,,39*58
$GLGSV,2,2,06,84,,,39,82,,,35*69
$GNRMC,233148.000,A,3934.6718,N,10605.4057,W,0.44,77.54,070126,,,A*5F
$GNGGA,233149.000,3934.6718,N,10605.4056,W,1,12,0.84,2765.0,M,-19.4,M,,*76
$GPGSV,3,1,11,06,77,111,41,19,57,044,40,11,44,200,37,24,40,259,33*7D
$GPGSV,3,2,11,22,37,117,40,17,36,061,41,48,36,218,34,12,35,310,40*78
$GPGSV,3,3,11,14,19,124,39,20,08,171,22,03,,,39*7D
$GLGSV,2,1,06,73,78,316,38,80,41,145,30,74,28,326,28,83,,,39*5F
$GLGSV,2,2,06,84,,,38,82,,,36*6B
$GNRMC,233149.000,A,3934.6718,N,10605.4056,W,0.31,77.54,070126,,,A*5D
$GNGGA,233150.000,3934.6719,N,10605.4056,W,1,12,0.84,2765.0,M,-19.4,M,,*7F
$GPGSV,3,1,11,06,77,111,41,19,57,044,41,11,44,200,37,24,40,259,32*7D
$GPGSV,3,2,11,22,37,117,40,17,36,061,41,48,36,218,34,12,35,310,40*78
$GPGSV,3,3,11,14,19,124,39,20,08,171,22,03,,,38*7C
$GLGSV,2,1,06,73,78,316,38,80,41,145,31,74,28,326,28,83,,,39*5E
$GLGSV,2,2,06,84,,,38,82,,,36*6B
$GNRMC,233150.000,A,3934.6719,N,10605.4056,W,0.01,77.54,070126,,,A*57
$GNGGA,233151.000,3934.6719,N,10605.4056,W,1,12,0.84,2765.0,M,-19.4,M,,*7E
$GPGSV,3,1,11,06,77,111,41,19,57,044,41,11,44,200,37,24,40,259,34*7B
$GPGSV,3,2,11,22,37,117,40,17,36,061,41,48,36,218,34,12,35,310,41*79
$GPGSV,3,3,11,14,19,124,39,20,08,171,23,03,,,38*7D
$GLGSV,2,1,06,73,78,316,38,80,41,145,31,74,28,326,29,83,,,39*5F
$GLGSV,2,2,06,84,,,37,82,,,36*64
$GNRMC,233151.000,A,3934.6719,N,10605.4056,W,0.01,77.54,070126,,,A*56
$GNGGA,233152.000,3934.6719,N,10605.4056,W,1,12,0.84,2765.0,M,-19.4,M,,*7D
$GPGSV,3,1,11,06,77,111,41,19,57,044,42,11,44,200,38,24,40,259,34*77
$GPGSV,3,2,11,22,37,117,41,17,36,061,41,48,36,218,34,12,35,310,41*78
$GPGSV,3,3,11,14,19,124,39,20,08,171,23,03,,,38*7D
$GLGSV,2,1,06,73,78,316,38,80,41,145,31,74,28,326,29,83,,,39*5F
$GLGSV,2,2,06,84,,,37,82,,,36*64
$GNRMC,233152.000,A,3934.6719,N,10605.4056,W,0.01,77.54,070126,,,A*55
$GNGGA,233153.000,3934.6719,N,10605.4056,W,1,12,0.84,2765.0,M,-19.4,M,,*7C
$GPGSV,3,1,11,06,77,111,41,19,57,044,42,11,44,200,38,24,40,259,33*70
$GPGSV,3,2,11,22,37,117,41,17,36,061,41,48,36,218,34,12,35,310,41*78
$GPGSV,3,3,11,14,19,124,39,20,08,171,23,03,,,38*7D
$GLGSV,2,1,06,73,78,316,38,80,41,145,31,74,28,326,29,83,,,39*5F
$GLGSV,2,2,06,84,,,37,82,,,36*64
$GNRMC,233153.000,A,3934.6719,N,10605.4056,W,0.01,77.54,070126,,,A*54
$GNGGA,233154.000,3934.6719,N,10605.4056,W,1,12,0.84,2765.1,M,-19.4,M,,*7A
$GPGSV,3,1,11,06,77,111,41,19,57,044,42,11,44,200,37,24,40,259,33*7F
$GPGSV,3,2,11,22,37,117,41,17,36,061,41,48,36,218,34,12,35,310,41*78
$GPGSV,3,3,11,14,19,124,39,20,08,171,23,03,,,37*72
$GLGSV,2,1,06,73,78,316,39,80,41,145,31,74,28,326,29,83,,,39*5E
$GLGSV,2,2,06,84,,,37,82,,,36*64
$GNRMC,233154.000,A,3934.6719,N,10605.4056,W,0.02,77.54,070126,,,A*50
$GNGGA,233155.000,3934.6719,N,10605.4055,W,1,12,0.84,2765.1,M,-19.4,M,,*78
$GPGSV,3,1,11,06,77,111,40,19,57,044,41,11,44,200,36,24,40,259,32*7D
$GPGSV,3,2,11,48,40,208,33,22,37,117,40,17,36,061,40,12,35,310,40*7E
$GPGSV,3,3,11,14,19,124,38,20,08,171,23,03,,,36*72
$GLGSV,2,1,06,73,78,316,38,80,41,145,31,74,28,326,28,83,,,38*5F
$GLGSV,2,2,06,84,,,36,82,,,36*65
$GNRMC,233155.000,A,3934.6719,N,10605.4055,W,0.00,77.54,070126,,,A*50
$GNGGA,233156.000,3934.6719,N,10605.4055,W,1,12,0.84,2765.1,M,-19.4,M,,*7B
$GPGSV,3,1,11,06,77,111,40,19,57,044,40,11,44,200,35,24,40,259,31*7C
$GPGSV,3,2,11,48,40,208,33,22,37,117,39,17,36,061,39,12,35,310,39*70
$GPGSV,3,3,11,14,19,124,38,20,08,171,23,03,,,35*71
$GLGSV,2,1,06,73,78,316,38,80,41,145,31,74,28,326,28,83,,,38*5F
$GLGSV,2,2,06,84,,,35,82,,,36*66
$GNRMC,233156.000,A,3934.6719,N,10605.4055,W,0.02,77.54,070126,,,A*51
$GNGGA,233157.000,3934.6719,N,10605.4055,W,1,12,0.84,2765.0,M,-19.4,M,,*7B
$GPGSV,3,1,11,06,77,111,40,19,57,044,40,11,44,200,35,24,40,259,31*7C
$GPGSV,3,2,11,48,40,208,33,22,37,117,39,17,36,061,39,12,35,310,39*70
$GPGSV,3,3,11,14,19,124,38,20,08,171,23,03,,,36*72
$GLGSV,2,1,06,73,78,316,38,80,41,145,31,74,28,326,28,83,,,38*5F
$GLGSV,2,2,06,84,,,35,82,,,36*66
$GNRMC,233157.000,A,3934.6719,N,10605.4055,W,0.02,77.54,070126,,,A*50
$GNGGA,233158.000,3934.6719,N,10605.4055,W,1,12,0.84,2765.1,M,-19.4,M,,*75
$GPGSV,3,1,11,06,77,111,40,19,57,044,40,11,44,200,35,24,40,259,30*7D
$GPGSV,3,2,11,48,40,208,33,22,37,117,39,17,36,061,39,12,35,310,39*70
$GPGSV,3,3,11,14,19,124,38,20,08,171,23,03,,,36*72
$GLGSV,2,1,06,73,78,316,38,80,41,145,31,74,28,326,27,83,,,39*51
$GLGSV,2,2,06,84,,,35,82,,,36*66
$GNRMC,233158.000,A,3934.6719,N,10605.4055,W,0.01,77.54,070126,,,A*5C
$GNGGA,233159.000,3934.6719,N,10605.4055,W,1,12,0.84,2765.1,M,-19.4,M,,*74
$GPGSV,3,1,11,06,77,111,39,19,57,044,39,11,44,200,31,24,40,259,28*70
$GPGSV,3,2,11,48,40,208,32,22,37,117,38,17,36,061,38,12,35,310,38*70
$GPGSV,3,3,11,14,19,124,36,20,08,171,23,03,,,35*7F
$GLGSV,2,1,06,73,78,316,37,80,41,145,30,74,28,326,27,83,,,38*5E
$GLGSV,2,2,06,84,,,34,82,,,35*64
$GNRMC,233159.000,A,3934.6719,N,10605.4055,W,0.03,77.54,070126,,,A*5F
$GNGGA,233200.000,3934.6719,N,10605.4055,W,1,12,0.84,2765.0,M,-19.4,M,,*7A
$GPGSV,3,1,11,06,77,107,40,19,57,044,40,11,44,200,33,24,40,259,29*74
$GPGSV,3,2,11,48,40,208,32,22,37,117,39,17,36,061,38,12,35,310,39*70
$GPGSV,3,3,11,14,19,124,37,20,08,171,23,03,,,36*7D
$GLGSV,2,1,06,73,78,316,38,80,41,145,30,74,28,326,28,83,,,39*5F
$GLGSV,2,2,06,84,,,35,82,,,36*66
$GNRMC,233200.000,A,3934.6719,N,10605.4055,W,0.02,77.54,070126,,,A*51
$GNGGA,233201.000,3934.6719,N,10605.4055,W,2,12,0.84,2765.1,M,-19.4,M,,*79
$GPGSV,3,1,11,06,77,107,40,19,57,044,40,11,44,200,34,24,40,259,29*73
$GPGSV,3,2,11,48,40,208,32,22,37,117,39,17,36,061,38,12,35,310,39*70
$GPGSV,3,3,11,14,19,124,37,20,08,171,23,03,,,36*7D
$GLGSV,2,1,06,73,78,316,38,80,41,145,30,74,28,326,28,83,,,39*5F
$GLGSV,2,2,06,84,,,35,82,,,36*66
$GNRMC,233201.000,A,3934.6719,N,10605.4055,W,0.03,77.54,070126,,,D*54
$GNGGA,233202.000,3934.6719,N,10605.4055,W,2,12,0.84,2765.1,M,-19.4,M,,*7A
$GPGSV,3,1,11,06,77,107,40,19,57,044,40,11,44,200,35,24,40,259,29*72
$GPGSV,3,2,11,48,40,208,32,22,37,117,39,17,36,061,38,12,35,310,39*70
$GPGSV,3,3,11,14,19,124,38,20,08,171,23,03,,,36*72
$GLGSV,2,1,06,73,78,316,38,80,41,145,30,74,28,326,28,83,,,39*5F
$GLGSV,2,2,06,84,,,35,82,,,36*66
$GNRMC,233202.000,A,3934.6719,N,10605.4055,W,0.02,77.54,070126,,,D*56
$GNGGA,233203.000,3934.6719,N,10605.4055,W,2,12,0.84,2765.1,M,-19.4,M,,*7B
$GPGSV,3,1,11,06,77,107,39,19,57,044,39,11,44,200,34,24,40,259,29*73
$GPGSV,3,2,11,48,40,208,32,22,37,117,39,17,36,061,38,12,35,310,39*70
$GPGSV,3,3,11,14,19,124,37,20,08,171,23,03,,,35*7E
$GLGSV,2,1,06,73,78,316,38,80,41,145,29,74,28,326,28,83,,,38*56
$GLGSV,2,2,06,84,,,35,82,,,36*66
$GNRMC,233203.000,A,3934.6719,N,10605.4055,W,0.03,77.54,070126,,,D*56
$GNGGA,233204.000,3934.6719,N,10605.4055,W,2,12,0.84,2765.1,M,-19.4,M,,*7C
$GPGSV,3,1,11,06,77,107,39,19,57,044,39,11,44,200,35,24,40,259,29*72
$GPGSV,3,2,11,48,40,208,32,22,37,117,39,17,36,061,39,12,35,310,39*71
$GPGSV,3,3,11,14,19,124,39,20,08,171,23,03,,,35*70
$GLGSV,2,1,06,73,78,316,38,80,41,145,29,74,28,326,27,83,,,38*59
$GLGSV,2,2,06,84,,,35,82,,,36*66
$GNRMC,233204.000,A,3934.6719,N,10605.4055,W,0.06,77.54,070126,,,D*54
$GNGGA,233205.000,3934.6719,N,10605.4054,W,2,12,0.84,2765.1,M,-19.4,M,,*7C
$GPGSV,3,1,11,06,77,107,39,19,57,044,39,11,45,200,35,24,40,259,30*7B
$GPGSV,3,2,11,48,40,208,32,22,37,117,39,17,36,061,39,12,35,310,39*71
$GPGSV,3,3,11,14,19,124,39,20,08,171,24,03,,,35*77
$GLGSV,2,1,06,73,78,316,38,80,41,145,29,74,28,326,27,83,,,38*59
$GLGSV,2,2,06,84,,,35,82,,,35*65
$GNRMC,233205.000,A,3934.6719,N,10605.4054,W,0.29,77.54,070126,,,D*59
$GNGGA,233206.000,3934.6719,N,10605.4054,W,2,12,0.84,2765.1,M,-19.4,M,,*7F
$GPGSV,3,1,11,06,77,107,38,19,57,044,39,11,45,200,35,24,40,259,30*7A
$GPGSV,3,2,11,48,40,208,32,22,37,117,39,17,36,061,39,12,36,310,39*72
$GPGSV,3,3,11,14,19,124,38,20,08,171,24,03,,,35*76
$GLGSV,2,1,06,73,78,316,37,80,41,145,28,74,28,326,27,83,,,38*57
$GLGSV,2,2,06,84,,,35,82,,,35*65
$GNRMC,233206.000,A,3934.6719,N,10605.4054,W,0.36,77.54,070126,,,D*54
$GNGGA,233207.000,3934.6720,N,10605.4053,W,2,12,0.84,2765.1,M,-19.4,M,,*73
$GPGSV,3,1,11,06,77,107,38,19,57,044,39,11,45,200,34,24,40,259,30*7B
$GPGSV,3,2,11,48,40,208,32,22,37,117,39,17,36,061,39,12,36,310,39*72
$GPGSV,3,3,11,14,19,124,37,20,08,171,25,03,,,35*78
$GLGSV,2,1,06,73,78,316,37,80,41,145,28,74,28,326,27,83,,,38*57
$GLGSV,2,2,06,84,,,35,82,,,35*65
$GNRMC,233207.000,A,3934.6720,N,10605.4053,W,0.58,77.54,070126,,,D*50
$GNGGA,233208.000,3934.6719,N,10605.4055,W,2,12,0.84,2765.1,M,-19.4,M,,*70
$GPGSV,3,1,11,06,77,107,39,19,57,044,40,11,45,200,34,24,40,259,31*75
$GPGSV,3,2,11,48,40,208,32,22,37,117,39,17,36,061,39,12,36,310,39*72
$GPGSV,3,3,11,14,18,125,37,20,08,171,25,03,,,36*7B
$GLGSV,2,1,06,73,78,316,38,80,41,145,28,74,28,326,28,83,,,38*57
$GLGSV,2,2,06,84,,,36,82,,,35*66
$GNRMC,233208.000,A,3934.6719,N,10605.4055,W,0.01,77.54,070126,,,D*5F
$GNGGA,233209.000,3934.6719,N,10605.4055,W,2,12,0.84,2765.1,M,-19.4,M,,*71
$GPGSV,3,1,11,06,77,107,39,19,57,044,40,11,45,200,34,24,40,259,31*75
$GPGSV,3,2,11,48,40,208,32,22,37,117,39,17,36,061,39,12,36,310,39*72
$GPGSV,3,3,11,14,18,125,37,20,08,171,26,03,,,36*78
$GLGSV,2,1,06,73,78,316,38,80,41,145,27,74,28,326,28,83,,,38*58
$GLGSV,2,2,06,84,,,37,82,,,36*64
$GNRMC,233209.000,A,3934.6719,N,10605.4055,W,0.02,77.54,070126,,,D*5D
$GNGGA,233210.000,3934.6719,N,10605.4055,W,2,12,0.84,2765.1,M,-19.4,M,,*79
$GPGSV,3,1,11,06,77,107,39,19,57,044,40,11,45,200,33,24,40,259,29*7B
$GPGSV,3,2,11,48,40,208,32,22,37,117,39,17,36,061,39,12,36,310,40*7C
$GPGSV,3,3,11,14,18,125,37,20,08,171,26,03,,,36*78
$GLGSV,2,1,06,73,78,316,38,80,41,145,28,74,28,326,28,83,,,38*57
$GLGSV,2,2,06,84,,,37,82,,,36*64
$GNRMC,233210.000,A,3934.6719,N,10605.4055,W,0.01,77.54,070126,,,D*56
$GNGGA,233211.000,3934.6719,N,10605.4056,W,2,12,0.84,2765.1,M,-19.4,M,,*7B
$GPGSV,3,1,11,06,77,107,41,19,57,044,40,11,45,200,33,24,40,259,21*7C
$GPGSV,3,2,11,48,40,208,31,22,37,117,40,12,36,310,41,17,35,062,40*7E
$GPGSV,3,3,11,14,18,125,38,20,08,171,27,03,,,36*76
$GLGSV,2,1,06,73,78,316,37,80,41,145,29,74,28,326,30,83,,,39*51
$GLGSV,2,2,06,84,,,38,82,,,36*6B
$GNRMC,233211.000,A,3934.6719,N,10605.4056,W,0.01,77.54,070126,,,D*54
$GNGGA,233212.000,3934.6719,N,10605.4056,W,2,12,0.84,2765.1,M,-19.4,M,,*78
$GPGSV,3,1,11,06,77,107,41,19,57,044,41,11,45,200,34,24,40,259,28*73
$GPGSV,3,2,11,48,40,208,31,22,37,117,40,12,36,310,41,17,35,062,40*7E
$GPGSV,3,3,11,14,18,125,38,20,08,171,28,03,,,37*78
$GLGSV,2,1,06,73,78,316,37,80,41,145,29,74,28,326,31,83,,,39*50
$GLGSV,2,2,06,84,,,38,82,,,36*6B
$GNRMC,233212.000,A,3934.6719,N,10605.4056,W,0.03,77.54,070126,,,D*55
$GNGGA,233213.000,3934.6719,N,10605.4056,W,2,12,0.84,2765.1,M,-19.4,M,,*79
$GPGSV,3,1,11,06,77,107,40,19,57,044,40,11,45,200,40,24,40,259,36*7F
$GPGSV,3,2,11,48,40,208,33,22,37,117,39,12,36,310,33,17,35,062,38*78
$GPGSV,3,3,11,14,18,125,39,20,08,171,29,03,,,35*7A
$GLGSV,2,1,06,73,78,316,36,80,41,145,43,74,28,326,33,83,,,37*51
$GLGSV,2,2,06,84,,,38,82,,,38*65
$GNRMC,233213.000,A,3934.6719,N,10605.4056,W,0.26,77.54,070126,,,D*53
$GNGGA,233214.000,3934.6719,N,10605.4057,W,2,12,0.84,2765.1,M,-19.4,M,,*7F
$GPGSV,3,1,11,06,77,107,40,19,57,045,38,11,45,200,42,24,40,259,36*73
$GPGSV,3,2,11,48,40,208,42,22,37,117,39,12,36,310,34,17,35,062,39*78
$GPGSV,3,3,11,14,18,125,38,20,08,171,30,03,,,37*71
$GLGSV,2,1,06,73,78,316,34,80,41,145,42,74,28,326,32,83,,,30*54
$GLGSV,2,2,06,84,,,39,82,,,37*6B
$GNRMC,233214.000,A,3934.6719,N,10605.4057,W,0.10,77.54,070126,,,D*50
$GNGGA,233215.000,3934.6719,N,10605.4057,W,2,12,0.84,2765.0,M,-19.4,M,,*7F
$GPGSV,3,1,11,06,77,107,34,19,57,045,39,11,45,200,42,24,40,259,37*70
$GPGSV,3,2,11,48,40,208,43,22,37,117,39,12,36,310,36,17,35,062,29*7A
$GPGSV,3,3,11,14,18,125,37,20,09,170,31,03,,,38*70
$GLGSV,2,1,06,73,78,316,32,80,41,145,40,74,28,326,32,83,,,31*51
$GLGSV,2,2,06,84,,,41,82,,,38*6B
$GNRMC,233215.000,A,3934.6719,N,10605.4057,W,0.15,77.54,070126,,,D*54
$GNGGA,233216.000,3934.6719,N,10605.4057,W,2,12,0.84,2765.0,M,-19.4,M,,*7C
$GPGSV,3,1,11,06,77,107,34,19,57,045,39,11,45,200,40,24,40,259,36*73
$GPGSV,3,2,11,48,40,208,41,22,37,117,37,12,36,310,37,17,35,062,31*7E
$GPGSV,3,3,11,14,18,125,36,20,09,170,23,03,,,46*7B
$GLGSV,2,1,06,73,78,316,32,80,41,145,42,74,28,326,34,83,,,33*57
$GLGSV,2,2,06,84,,,41,82,,,49*6D
$GNRMC,233216.000,A,3934.6719,N,10605.4057,W,0.17,77.54,070126,,,D*55
$GNGGA,233217.000,3934.6719,N,10605.4056,W,2,12,0.84,2765.0,M,-19.4,M,,*7C
$GPGSV,3,1,11,06,77,107,43,19,57,045,38,11,45,200,40,24,40,259,25*70
$GPGSV,3,2,11,48,40,208,24,22,36,118,38,12,36,310,36,17,35,062,38*74
$GPGSV,3,3,11,14,18,125,36,20,09,170,24,03,,,38*75
$GLGSV,2,1,06,73,78,316,39,80,41,145,43,74,28,326,35,83,,,35*5A
$GLGSV,2,2,06,84,,,40,82,,,42*67
$GNRMC,233217.000,A,3934.6719,N,10605.4056,W,0.20,77.54,070126,,,D*51
$GNGGA,233218.000,3934.6719,N,10605.4056,W,2,12,0.84,2765.1,M,-19.4,M,,*72
$GPGSV,3,1,11,06,77,107,42,19,57,045,37,11,45,200,39,24,40,259,25*70
$GPGSV,3,2,11,48,40,208,24,22,36,118,38,12,36,310,26,17,35,062,37*7A
$GPGSV,3,3,11,14,18,125,34,20,09,170,24,03,,,37*78
$GLGSV,2,1,06,73,78,316,40,80,41,145,43,74,28,326,34,83,,,44*53
$GLGSV,2,2,06,84,,,40,82,,,42*67
$GNRMC,233218.000,A,3934.6719,N,10605.4056,W,0.52,77.54,070126,,,D*5B
$GNGGA,233219.000,3934.6723,N,10605.4050,W,2,12,0.84,2765.1,M,-19.4,M,,*7C
$GPGSV,3,1,11,06,77,107,40,19,57,045,36,11,45,200,40,24,40,258,32*7A
$GPGSV,3,2,11,48,40,208,38,22,36,118,39,12,36,310,37,17,35,062,37*76
$GPGSV,3,3,11,14,18,125,36,20,09,170,26,03,,,36*79
$GLGSV,2,1,06,73,78,316,41,80,41,145,43,74,28,326,33,83,,,43*52
$GLGSV,2,2,06,84,,,41,82,,,42*66
$GNRMC,233219.000,A,3934.6723,N,10605.4050,W,1.10,76.55,070126,,,D*52
$GNGGA,233220.000,3934.6722,N,10605.4054,W,2,12,0.84,2765.2,M,-19.4,M,,*70
$GPGSV,3,1,11,06,77,107,40,19,57,045,36,11,45,200,38,24,40,258,31*76
$GPGSV,3,2,11,48,40,208,30,22,36,118,39,12,36,310,37,17,35,062,37*7E
$GPGSV,3,3,11,14,18,125,37,20,09,170,26,03,,,25*7A
$GLGSV,2,1,06,73,78,316,41,80,41,145,44,74,28,326,32,83,,,42*55
$GLGSV,2,2,06,84,,,41,82,,,41*65
$GNRMC,233220.000,A,3934.6722,N,10605.4054,W,0.34,76.55,070126,,,D*5A
$GNGGA,233221.000,3934.6722,N,10605.4054,W,2,12,0.84,2765.2,M,-19.4,M,,*71
$GPGSV,3,1,11,06,77,107,41,19,57,045,38,11,45,200,39,24,40,258,38*71
$GPGSV,3,2,11,48,40,208,41,22,36,118,40,12,36,310,35,17,35,062,38*7B
$GPGSV,3,3,11,14,18,125,37,20,09,170,26,03,,,27*78
$GLGSV,2,1,06,73,78,316,41,80,41,145,44,74,28,326,33,83,,,42*54
$GLGSV,2,2,06,84,,,41,82,,,40*64
$GNRMC,233221.000,A,3934.6722,N,10605.4054,W,0.18,76.55,070126,,,D*55
$GNGGA,233222.000,3934.6722,N,10605.4054,W,2,12,0.84,2765.2,M,-19.4,M,,*72
$GPGSV,3,1,11,06,77,107,40,19,57,045,39,11,45,200,35,24,40,258,38*7D
$GPGSV,3,2,11,48,40,208,41,22,36,118,40,12,36,310,28,17,35,062,38*77
$GPGSV,3,3,11,14,18,125,37,20,09,170,25,03,,,40*7A
$GLGSV,2,1,07,73,78,316,41,80,41,145,45,74,28,326,34,83,,,42*53
$GLGSV,2,2,07,84,,,41,82,,,39,84,,,41*62
$GNRMC,233222.000,A,3934.6722,N,10605.4054,W,0.18,76.55,070126,,,D*56
$GNGGA,233223.000,3934.6722,N,10605.4053,W,2,12,0.84,2765.3,M,-19.4,M,,*75
$GPGSV,3,1,11,06,77,107,39,19,57,045,39,11,45,200,34,24,40,258,36*7C
$GPGSV,3,2,11,48,40,208,34,22,36,118,39,12,36,310,27,17,35,062,39*75
$GPGSV,3,3,11,14,18,125,36,20,09,170,24,03,,,31*7C
$GLGSV,2,1,07,73,78,316,40,80,41,145,44,74,28,326,24,83,,,40*50
$GLGSV,2,2,07,84,,,39,82,,,38,84,,,39*63
$GNRMC,233223.000,A,3934.6722,N,10605.4053,W,0.19,76.55,070126,,,D*51
$GNGGA,233224.000,3934.6722,N,10605.4052,W,2,12,0.84,2765.3,M,-19.4,M,,*73
$GPGSV,3,1,11,06,77,107,38,19,57,045,39,11,45,200,33,24,40,258,26*7B
$GPGSV,3,2,11,48,40,208,33,22,36,118,40,12,36,310,29,17,35,062,38*73
$GPGSV,3,3,11,14,18,125,36,20,09,170,23,03,,,32*78
$GLGSV,2,1,07,73,78,316,31,80,41,145,43,74,28,326,24,83,,,30*56
$GLGSV,2,2,07,84,,,30,82,,,38,84,,,30*63
$GNRMC,233224.000,A,3934.6722,N,10605.4052,W,0.46,76.55,070126,,,D*5D
$GNGGA,233225.000,3934.6721,N,10605.4051,W,2,12,0.84,2765.3,M,-19.4,M,,*72
$GPGSV,3,1,11,06,77,107,43,19,57,045,39,11,45,200,42,24,40,258,43*72
$GPGSV,3,2,11,48,40,208,40,22,36,118,41,12,36,310,29,17,35,062,37*79
$GPGSV,3,3,11,14,18,125,37,20,09,170,24,03,,,30*7C
$GLGSV,2,1,07,73,78,316,40,80,41,145,43,74,28,326,26,83,,,39*5B
$GLGSV,2,2,07,84,,,37,82,,,37,84,,,37*6C
$GNRMC,233225.000,A,3934.6721,N,10605.4051,W,0.43,76.55,070126,,,D*59
$GNGGA,233226.000,3934.6721,N,10605.4050,W,2,12,0.84,2765.3,M,-19.4,M,,*70
$GPGSV,3,1,11,06,77,107,43,19,57,045,40,11,45,200,42,24,40,258,43*7C
$GPGSV,3,2,11,48,40,208,40,22,36,118,39,12,36,310,31,17,35,062,37*7F
$GPGSV,3,3,11,14,18,125,37,20,09,170,25,03,,,40*7A
$GLGSV,2,1,07,73,78,316,41,80,41,145,44,74,28,326,37,83,,,41*52
$GLGSV,2,2,07,84,,,37,82,,,37,84,,,37*6C
$GNRMC,233226.000,A,3934.6721,N,10605.4050,W,0.38,76.55,070126,,,D*57
$GNGGA,233227.000,3934.6721,N,10605.4052,W,2,12,0.84,2765.3,M,-19.4,M,,*73
$GPGSV,3,1,11,06,77,107,42,19,57,045,41,11,45,200,41,24,40,258,42*7E
$GPGSV,3,2,11,48,40,208,40,22,36,118,39,12,36,310,43,17,35,062,37*7A
$GPGSV,3,3,11,14,18,125,35,20,09,170,24,03,,,40*79
$GLGSV,2,1,07,73,78,316,41,80,41,145,45,74,28,326,37,83,,,41*53
$GLGSV,2,2,07,84,,,38,82,,,37,84,,,38*6C
$GNRMC,233227.000,A,3934.6721,N,10605.4052,W,0.08,76.55,070126,,,D*57
$GNGGA,233228.000,3934.6721,N,10605.4053,W,2,12,0.84,2765.2,M,-19.4,M,,*7C
$GPGSV,3,1,11,06,77,107,42,19,57,045,42,11,45,200,41,24,40,258,42*7D
$GPGSV,3,2,11,48,40,208,40,22,36,118,38,12,36,310,43,17,35,062,37*7B
$GPGSV,3,3,11,14,18,125,35,20,09,170,24,03,,,40*79
$GLGSV,2,1,07,73,78,316,41,80,41,145,45,74,28,326,37,83,,,41*53
$GLGSV,2,2,07,84,,,38,82,,,37,84,,,38*6C
$GNRMC,233228.000,A,3934.6721,N,10605.4053,W,0.07,76.55,070126,,,D*56
$GNGGA,233229.000,3934.6721,N,10605.4053,W,2,12,0.84,2765.2,M,-19.4,M,,*7D
$GPGSV,3,1,11,06,77,107,42,19,57,045,42,11,45,200,40,24,40,258,42*7C
$GPGSV,3,2,11,48,40,208,40,22,36,118,38,12,36,310,43,17,35,062,37*7B
$GPGSV,3,3,11,14,18,125,35,20,09,170,24,03,,,40*79
$GLGSV,2,1,07,73,78,316,41,80,41,145,46,74,28,326,38,83,,,41*5F
$GLGSV,2,2,07,84,,,39,82,,,37,84,,,39*6C
$GNRMC,233229.000,A,3934.6721,N,10605.4053,W,0.04,76.55,070126,,,D*54
$GNGGA,233230.000,3934.6721,N,10605.4053,W,2,12,0.84,2765.2,M,-19.4,M,,*75
$GPGSV,3,1,11,06,77,107,41,19,57,045,42,11,45,200,39,24,40,258,41*72
$GPGSV,3,2,11,48,40,208,40,22,36,118,37,12,36,310,42,17,35,062,37*75
$GPGSV,3,3,11,14,18,125,34,20,09,170,24,03,,,39*76
$GLGSV,2,1,06,73,78,316,41,80,41,145,46,74,28,326,37,83,,,41*51
$GLGSV,2,2,06,84,,,37,82,,,37*65
$GNRMC,233230.000,A,3934.6721,N,10605.4053,W,0.03,76.55,070126,,,D*5B
$GNGGA,233231.000,3934.6721,N,10605.4053,W,2,12,0.84,2765.2,M,-19.4,M,,*74
$GPGSV,3,1,11,06,77,107,39,19,57,045,41,11,45,200,33,24,40,258,39*7B
$GPGSV,3,2,11,48,40,208,39,22,36,118,35,12,36,310,40,17,35,062,35*79
$GPGSV,3,3,11,14,18,125,33,20,09,170,24,03,,,37*7F
$GLGSV,2,1,06,73,78,316,40,80,41,145,45,74,28,326,36,83,,,40*53
$GLGSV,2,2,06,84,,,37,82,,,36*64
$GNRMC,233231.000,A,3934.6721,N,10605.4053,W,0.04,76.55,070126,,,D*5D
$GNGGA,233232.000,3934.6721,N,10605.4053,W,2,12,0.84,2765.1,M,-19.4,M,,*74
$GPGSV,3,1,11,06,77,107,40,19,57,045,41,11,45,200,35,24,40,258,39*73
$GPGSV,3,2,11,48,40,208,40,22,36,118,36,12,36,310,41,17,35,062,36*76
$GPGSV,3,3,11,14,18,125,33,20,09,170,24,03,,,38*70
$GLGSV,2,1,06,73,78,316,40,80,41,145,46,74,28,326,36,83,,,41*51
$GLGSV,2,2,06,84,,,38,82,,,36*6B
$GNRMC,233232.000,A,3934.6721,N,10605.4053,W,0.05,76.55,070126,,,D*5F
$GNGGA,233233.000,3934.6721,N,10605.4053,W,2,12,0.84,2765.1,M,-19.4,M,,*75
$GPGSV,3,1,11,06,77,107,40,19,57,045,41,11,45,200,36,24,40,258,39*70
$GPGSV,3,2,11,48,40,208,40,22,36,118,36,12,36,310,42,17,35,062,37*74
$GPGSV,3,3,11,14,18,125,33,20,09,170,24,03,,,38*70
$GLGSV,2,1,07,73,78,316,41,80,41,145,46,74,28,326,36,81,,,*56
$GLGSV,2,2,07,83,,,41,84,,,38,82,,,36*64
$GNRMC,233233.000,A,3934.6721,N,10605.4053,W,0.03,76.55,070126,,,D*58
$GNGGA,233234.000,3934.6721,N,10605.4054,W,2,12,0.84,2765.2,M,-19.4,M,,*76
$GPGSV,3,1,11,06,77,107,40,19,57,045,41,11,45,200,37,24,40,258,40*7F
$GPGSV,3,2,11,48,40,208,40,22,36,118,37,12,36,310,42,17,35,062,37*75
$GPGSV,3,3,11,14,18,125,34,20,09,170,23,03,,,38*70
$GLGSV,2,1,07,73,78,316,41,80,41,145,46,74,28,326,37,81,,,*57
$GLGSV,2,2,07,83,,,41,84,,,39,82,,,37*64
$GNRMC,233234.000,A,3934.6721,N,10605.4054,W,0.03,76.55,070126,,,D*58
$GNGGA,233235.000,3934.6721,N,10605.4054,W,2,12,0.84,2765.2,M,-19.4,M,,*77
$GPGSV,3,1,11,06,77,107,41,19,57,045,42,11,45,200,38,24,40,258,41*73
$GPGSV,3,2,11,48,40,208,40,22,36,118,37,12,36,310,43,17,35,062,37*74
$GPGSV,3,3,11,14,18,125,34,20,09,170,22,03,,,39*70
$GLGSV,2,1,07,73,78,316,41,80,41,145,46,74,28,326,38,81,,,*58
$GLGSV,2,2,07,83,,,41,84,,,39,82,,,37*64
$GNRMC,233235.000,A,3934.6721,N,10605.4054,W,0.02,76.55,070126,,,D*58
$GNGGA,233236.000,3934.6721,N,10605.4054,W,2,12,0.84,2765.1,M,-19.4,M,,*77
$GPGSV,3,1,11,06,77,107,41,19,57,045,42,11,45,200,38,24,40,258,41*73
$GPGSV,3,2,11,48,40,208,40,22,36,118,37,12,36,310,43,17,35,062,37*74
$GPGSV,3,3,11,14,18,125,34,20,09,170,21,03,,,39*73
$GLGSV,2,1,07,73,78,316,41,80,41,145,46,74,28,326,38,81,,,*58
$GLGSV,2,2,07,83,,,41,84,,,39,82,,,37*64
$GNRMC,233236.000,A,3934.6721,N,10605.4054,W,0.01,76.55,070126,,,D*58
$GNGGA,233237.000,3934.6721,N,10605.4055,W,2,12,0.84,2765.1,M,-19.4,M,,*77
$GPGSV,3,1,11,06,77,107,41,19,57,045,42,11,45,200,38,24,40,258,41*73
$GPGSV,3,2,11,48,40,208,40,22,36,118,37,12,36,310,43,17,35,062,37*74
$GPGSV,3,3,11,14,18,125,34,20,09,170,20,03,,,39*72
$GLGSV,2,1,07,73,78,316,42,80,41,145,46,74,28,326,38,81,,,*5B
$GLGSV,2,2,07,83,,,41,84,,,39,82,,,37*64
$GNRMC,233237.000,A,3934.6721,N,10605.4055,W,0.01,76.55,070126,,,D*58
$GNGGA,233238.000,3934.6720,N,10605.4055,W,2,12,0.84,2765.1,M,-19.4,M,,*79
$GPGSV,3,1,11,06,77,107,41,19,57,045,42,11,45,200,38,24,40,258,41*73
$GPGSV,3,2,11,48,40,208,40,22,36,118,37,12,36,310,43,17,35,062,38*7B
$GPGSV,3,3,11,14,18,125,34,20,09,170,20,03,,,39*72
$GLGSV,2,1,07,73,78,316,42,80,41,145,46,74,28,326,38,81,,,*5B
$GLGSV,2,2,07,83,,,41,84,,,39,82,,,37*64
$GNRMC,233238.000,A,3934.6720,N,10605.4055,W,0.01,76.55,070126,,,D*56
$GNGGA,233239.000,3934.6720,N,10605.4055,W,2,12,0.84,2765.1,M,-19.4,M,,*78
$GPGSV,3,1,11,06,77,107,40,19,57,045,41,11,45,200,37,24,40,258,40*7F
$GPGSV,3,2,11,48,40,208,39,22,36,118,36,12,36,310,42,17,35,062,37*7A
$GPGSV,3,3,11,14,18,125,33,20,09,170,20,03,,,38*74
$GLGSV,2,1,07,73,78,316,41,80,41,145,46,74,28,326,38,81,,,*58
$GLGSV,2,2,07,83,,,41,84,,,39,82,,,37*64
$GNRMC,233239.000,A,3934.6720,N,10605.4055,W,0.01,76.55,070126,,,D*57
$GNGGA,233240.000,3934.6720,N,10605.4055,W,2,13,0.77,2765.1,M,-19.4,M,,*7B
$GPGSV,3,1,11,06,77,107,40,19,57,045,41,11,45,200,36,24,40,258,40*7E
$GPGSV,3,2,11,48,40,208,39,22,36,118,36,12,36,310,42,17,35,062,37*7A
$GPGSV,3,3,11,14,18,125,33,20,09,170,20,03,,,38*74
$GLGSV,2,1,07,73,78,316,41,80,41,145,46,74,28,326,38,82,28,034,37*62
$GLGSV,2,2,07,81,,,,83,,,41,84,,,39*63
$GNRMC,233240.000,A,3934.6720,N,10605.4055,W,0.01,76.55,070126,,,D*59
$GNGGA,233241.000,3934.6720,N,10605.4056,W,2,13,0.77,2765.1,M,-19.4,M,,*79
$GPGSV,3,1,11,06,77,107,40,19,57,045,41,11,45,200,36,24,40,258,40*7E
$GPGSV,3,2,11,48,40,208,39,22,36,118,36,12,36,310,42,17,35,062,37*7A
$GPGSV,3,3,11,14,18,125,33,20,09,170,20,03,,,37*7B
$GLGSV,2,1,07,73,78,316,41,80,41,145,46,74,28,326,37,82,28,034,37*6D
$GLGSV,2,2,07,81,,,,83,,,41,84,,,39*63
$GNRMC,233241.000,A,3934.6720,N,10605.4056,W,0.01,76.55,070126,,,D*5B
$GNGGA,233242.000,3934.6720,N,10605.4056,W,2,13,0.77,2765.1,M,-19.4,M,,*7A
$GPGSV,3,1,11,06,77,107,38,19,57,045,40,11,45,200,36,24,40,258,39*7E
$GPGSV,3,2,11,48,40,208,39,22,36,118,35,12,36,310,41,17,35,062,36*7B
$GPGSV,3,3,11,14,18,125,33,20,09,170,19,03,,,37*71
$GLGSV,2,1,07,73,78,316,41,80,41,145,46,74,28,326,37,82,28,034,37*6D
$GLGSV,2,2,07,81,,,,83,,,41,84,,,39*63
$GNRMC,233242.000,A,3934.6720,N,10605.4056,W,0.01,76.55,070126,,,D*58
$GNGGA,233243.000,3934.6720,N,10605.4056,W,2,13,0.77,2765.1,M,-19.4,M,,*7B
$GPGSV,3,1,11,06,77,107,38,19,57,045,39,11,45,200,35,24,40,258,39*73
$GPGSV,3,2,11,48,40,208,39,22,36,118,35,12,36,310,40,17,35,062,36*7A
$GPGSV,3,3,11,14,18,125,33,20,09,170,18,03,,,36*71
$GLGSV,2,1,07,73,78,316,41,80,41,145,46,74,28,326,37,82,28,034,37*6D
$GLGSV,2,2,07,81,,,,83,,,41,84,,,39*63
$GNRMC,233243.000,A,3934.6720,N,10605.4056,W,0.01,76.55,070126,,,D*59
$GNGGA,233244.000,3934.6720,N,10605.4056,W,2,13,0.77,2765.1,M,-19.4,M,,*7C
$GPGSV,3,1,11,06,77,107,38,19,57,045,39,11,45,200,35,24,40,258,39*73
$GPGSV,3,2,11,48,40,208,39,22,36,118,35,12,36,310,40,17,35,062,36*7A
$GPGSV,3,3,11,14,18,125,33,20,09,170,18,03,,,36*71
$GLGSV,2,1,07,73,78,316,41,80,41,145,46,74,28,326,37,82,28,034,37*6D
$GLGSV,2,2,07,81,,,,83,,,41,84,,,38*62
$GNRMC,233244.000,A,3934.6720,N,10605.4056,W,0.03,76.55,070126,,,D*5C
$GNGGA,233245.000,3934.6720,N,10605.4056,W,2,13,0.77,2765.2,M,-19.4,M,,*7E
$GPGSV,3,1,11,06,77,107,38,19,57,045,39,11,45,200,35,24,40,258,38*72
$GPGSV,3,2,11,48,40,208,38,22,36,118,35,12,36,310,40,17,35,062,36*7B
$GPGSV,3,3,11,14,18,125,33,20,09,170,18,03,,,36*71
$GLGSV,2,1,07,73,78,316,41,80,41,145,46,74,28,326,37,82,28,034,37*6D
$GLGSV,2,2,07,81,,,,83,,,41,84,,,38*62
$GNRMC,233245.000,A,3934.6720,N,10605.4056,W,0.01,76.55,070126,,,D*5F
$GNGGA,233246.000,3934.6719,N,10605.4056,W,2,13,0.77,2765.1,M,-19.4,M,,*74
$GPGSV,3,1,11,06,77,107,40,19,57,045,40,11,45,200,36,24,40,258,39*71
$GPGSV,3,2,11,48,40,208,39,22,36,118,36,12,36,310,41,17,35,062,37*79
$GPGSV,3,3,11,14,18,125,33,20,09,170,19,03,,,37*71
$GLGSV,2,1,07,73,78,316,42,80,41,145,46,74,28,326,37,82,28,034,37*6E
$GLGSV,2,2,07,81,,,,83,,,41,84,,,38*62
$GNRMC,233246.000,A,3934.6719,N,10605.4056,W,0.02,76.55,070126,,,D*55
$GNGGA,233247.000,3934.6720,N,10605.4056,W,2,13,0.77,2765.2,M,-19.4,M,,*7C
$GPGSV,3,1,11,06,77,107,39,19,57,045,40,11,45,200,35,24,40,258,39*7C
$GPGSV,3,2,11,48,40,208,38,22,36,118,35,12,36,310,40,17,35,062,36*7B
$GPGSV,3,3,11,14,18,125,33,20,09,170,19,03,,,36*70
$GLGSV,2,1,07,73,78,316,42,80,41,145,46,74,28,326,37,82,28,034,37*6E
$GLGSV,2,2,07,81,,,,83,,,41,84,,,38*62
$GNRMC,233247.000,A,3934.6720,N,10605.4056,W,0.01,76.55,070126,,,D*5D
$GNGGA,233248.000,3934.6720,N,10605.4056,W,2,13,0.77,2765.2,M,-19.4,M,,*73
$GPGSV,3,1,11,06,77,107,39,19,57,045,40,11,45,200,35,24,40,258,39*7C
$GPGSV,3,2,11,48,40,208,38,22,36,118,35,12,36,310,40,17,35,062,36*7B
$GPGSV,3,3,11,14,18,125,33,20,09,170,19,03,,,36*70
$GLGSV,2,1,07,73,78,316,42,80,41,145,45,74,28,326,37,82,28,034,37*6D
$GLGSV,2,2,07,81,,,,83,,,41,84,,,37*6D
$GNRMC,233248.000,A,3934.6720,N,10605.4056,W,0.02,76.55,070126,,,D*51
$GNGGA,233249.000,3934.6720,N,10605.4056,W,2,14,0.72,2765.2,M,-19.4,M,,*70
$GPGSV,3,1,11,06,77,107,38,19,57,045,39,11,45,200,34,24,40,258,38*73
$GPGSV,3,2,11,48,40,208,37,22,36,118,34,12,36,310,39,17,35,062,35*78
$GPGSV,3,3,11,14,18,125,32,03,11,042,35,20,09,170,19*44
$GLGSV,2,1,07,73,78,316,41,80,41,145,45,74,28,326,37,82,28,034,36*6F
$GLGSV,2,2,07,81,,,,83,,,41,84,,,37*6D
$GNRMC,233249.000,A,3934.6720,N,10605.4056,W,0.02,76.55,070126,,,D*50
$GNGGA,233250.000,3934.6719,N,10605.4056,W,2,14,0.72,2765.2,M,-19.4,M,,*72
$GPGSV,3,1,11,06,77,107,38,19,57,045,39,11,45,200,35,24,40,258,38*72
$GPGSV,3,2,11,48,40,208,38,22,36,118,35,12,36,310,40,17,35,062,35*78
$GPGSV,3,3,11,14,18,125,33,03,11,042,36,20,09,170,19*46
$GLGSV,2,1,07,73,78,316,41,80,41,145,45,74,28,326,37,82,28,034,36*6F
$GLGSV,2,2,07,81,,,,83,,,41,84,,,37*6D
$GNRMC,233250.000,A,3934.6719,N,10605.4056,W,0.02,76.55,070126,,,D*52
$GNGGA,233251.000,3934.6719,N,10605.4056,W,2,14,0.72,2765.2,M,-19.4,M,,*73
$GPGSV,3,1,11,06,77,107,38,19,57,045,39,11,45,200,34,24,40,258,37*7C
$GPGSV,3,2,11,48,40,208,38,22,36,118,34,12,36,310,40,17,35,062,35*79
$GPGSV,3,3,11,14,18,125,32,03,11,042,35,20,09,170,19*44
$GLGSV,2,1,07,73,78,316,41,80,41,145,45,74,28,326,37,82,28,034,36*6F
$GLGSV,2,2,07,81,,,,83,,,41,84,,,37*6D
$GNRMC,233251.000,A,3934.6719,N,10605.4056,W,0.01,76.55,070126,,,D*50
$GNGGA,233252.000,3934.6719,N,10605.4056,W,2,14,0.72,2765.2,M,-19.4,M,,*70
$GPGSV,3,1,11,06,77,107,39,19,57,045,40,11,45,200,36,24,40,258,39*7F
$GPGSV,3,2,11,48,40,208,39,22,36,118,35,12,36,310,41,17,35,062,36*7B
$GPGSV,3,3,11,14,18,125,34,03,11,042,37,20,09,170,19*40
$GLGSV,2,1,07,73,78,316,42,80,41,145,46,74,28,326,38,82,28,034,37*61
$GLGSV,2,2,07,81,,,,83,,,41,84,,,38*62
$GNRMC,233252.000,A,3934.6719,N,10605.4056,W,0.00,76.55,070126,,,D*52
$GNGGA,233253.000,3934.6719,N,10605.4056,W,2,14,0.72,2765.2,M,-19.4,M,,*71
$GPGSV,3,1,11,06,77,107,38,19,57,045,40,11,45,200,36,24,40,258,39*7E
$GPGSV,3,2,11,48,40,208,39,22,36,118,35,12,36,310,41,17,35,062,36*7B
$GPGSV,3,3,11,14,18,125,34,03,11,042,37,20,09,170,19*40
$GLGSV,2,1,07,73,78,316,42,80,41,145,46,74,28,326,38,82,28,034,37*61
$GLGSV,2,2,07,81,,,,83,,,41,84,,,38*62
$GNRMC,233253.000,A,3934.6719,N,10605.4056,W,0.01,76.55,070126,,,D*52
$GNGGA,233254.000,3934.6719,N,10605.4056,W,2,14,0.72,2765.2,M,-19.4,M,,*76
$GPGSV,3,1,11,06,77,107,38,19,57,045,39,11,45,200,35,24,40,258,38*72
$GPGSV,3,2,11,48,40,208,38,22,36,118,35,12,36,310,40,17,35,062,35*78
$GPGSV,3,3,11,14,18,125,33,03,11,042,37,20,09,170,19*47
$GLGSV,2,1,07,73,78,316,41,80,41,145,45,74,28,326,37,82,28,034,37*6E
$GLGSV,2,2,07,81,,,,83,,,41,84,,,38*62
$GNRMC,233254.000,A,3934.6719,N,10605.4056,W,0.02,76.55,070126,,,D*56
$GNGGA,233255.000,3934.6719,N,10605.4055,W,2,14,0.72,2765.2,M,-19.4,M,,*74
$GPGSV,3,1,11,06,77,107,39,19,57,045,40,11,45,200,36,24,40,258,39*7F
$GPGSV,3,2,11,48,40,208,39,22,36,118,36,12,36,310,41,17,35,062,36*78
$GPGSV,3,3,11,14,18,125,34,03,11,042,38,20,09,170,19*4F
$GLGSV,2,1,07,73,78,316,42,80,41,145,46,74,28,326,37,82,28,034,37*6E
$GLGSV,2,2,07,81,,,,83,,,42,84,,,39*60
$GNRMC,233255.000,A,3934.6719,N,10605.4055,W,0.02,76.55,070126,,,D*54
$GNGGA,233256.000,3934.6720,N,10605.4055,W,2,14,0.72,2765.2,M,-19.4,M,,*7D
$GPGSV,3,1,11,06,77,107,39,19,57,045,40,11,45,200,37,24,40,258,40*70
$GPGSV,3,2,11,48,40,208,39,22,36,118,37,12,36,310,42,17,35,062,36*7A
$GPGSV,3,3,11,14,18,125,35,03,11,042,38,20,09,170,19*4E
$GLGSV,2,1,07,73,78,316,42,80,41,145,46,74,28,326,37,82,28,034,37*6E
$GLGSV,2,2,07,81,,,,83,,,42,84,,,39*60
$GNRMC,233256.000,A,3934.6720,N,10605.4055,W,0.01,76.55,070126,,,D*5E
$GNGGA,233257.000,3934.6720,N,10605.4055,W,2,14,0.72,2765.2,M,-19.4,M,,*7C
$GPGSV,3,1,11,06,77,107,43,19,57,045,41,11,45,200,38,24,40,258,41*72
$GPGSV,3,2,11,48,40,208,40,22,36,118,37,12,36,310,43,17,35,062,37*74
$GPGSV,3,3,11,14,18,125,36,03,11,042,39,20,09,170,19*4C
$GLGSV,2,1,07,73,78,316,42,80,41,145,46,74,28,326,38,82,28,034,37*61
$GLGSV,2,2,07,81,,,,83,,,42,84,,,40*6E
$GNRMC,233257.000,A,3934.6720,N,10605.4055,W,0.00,76.55,070126,,,D*5E
$GNGGA,233258.000,3934.6720,N,10605.4055,W,2,14,0.72,2765.2,M,-19.4,M,,*73
$GPGSV,3,1,11,06,77,107,43,19,57,045,42,11,45,200,39,24,40,258,42*73
$GPGSV,3,2,11,48,40,208,41,22,36,118,38,12,36,310,43,17,35,062,38*75
$GPGSV,3,3,11,14,18,125,37,03,11,042,40,20,09,170,20*49
$GLGSV,2,1,07,73,78,316,42,80,41,145,47,74,28,326,39,82,28,034,37*61
$GLGSV,2,2,07,81,,,,83,,,42,84,,,40*6E
$GNRMC,233258.000,A,3934.6720,N,10605.4055,W,0.01,76.55,070126,,,D*50
$GNGGA,233259.000,3934.6720,N,10605.4055,W,2,14,0.72,2765.2,M,-19.4,M,,*72
$GPGSV,3,1,11,06,77,107,43,19,57,045,42,11,45,200,39,24,40,258,42*73
$GPGSV,3,2,11,48,40,208,41,22,36,118,38,12,36,310,43,17,35,062,38*75
$GPGSV,3,3,11,14,18,125,37,03,11,042,40,20,09,170,21*48
$GLGSV,2,1,07,73,78,316,43,80,41,145,47,74,28,326,39,82,28,034,37*60
$GLGSV,2,2,07,81,,,,83,,,42,84,,,40*6E
$GNRMC,233259.000,A,3934.6720,N,10605.4055,W,0.02,76.55,070126,,,D*52
$GNGGA,233300.000,3934.6720,N,10605.4055,W,2,14,0.72,2765.2,M,-19.4,M,,*7F
$GPGSV,3,1,11,06,77,107,43,19,57,045,42,11,45,200,40,24,40,258,42*7D
$GPGSV,3,2,11,48,40,208,42,22,36,118,38,12,36,310,43,17,35,062,39*77
$GPGSV,3,3,11,14,18,125,37,03,11,042,40,20,09,170,21*48
$GLGSV,2,1,07,73,78,316,43,80,41,145,47,74,28,326,39,82,28,034,37*60
$GLGSV,2,2,07,81,,,,83,,,42,84,,,40*6E
$GNRMC,233300.000,A,3934.6720,N,10605.4055,W,0.01,76.55,070126,,,D*5C
$GNGGA,233301.000,3934.6720,N,10605.4055,W,2,14,0.72,2765.3,M,-19.4,M,,*7F
$GPGSV,3,1,11,06,77,107,43,19,57,045,42,11,45,200,40,24,40,258,42*7D
$GPGSV,3,2,11,48,40,208,42,22,36,118,38,12,36,310,43,17,35,062,39*77
$GPGSV,3,3,11,14,18,125,37,03,11,042,40,20,09,170,22*4B
$GLGSV,2,1,07,73,78,316,43,80,41,145,47,74,28,326,39,82,28,034,37*60
$GLGSV,2,2,07,81,,,,83,,,43,84,,,40*6F
$GNRMC,233301.000,A,3934.6720,N,10605.4055,W,0.01,76.55,070126,,,D*5D
$GNGGA,233302.000,3934.6720,N,10605.4055,W,2,14,0.72,2765.3,M,-19.4,M,,*7C
$GPGSV,3,1,11,06,77,107,43,19,57,045,42,11,45,200,40,24,40,258,42*7D
$GPGSV,3,2,11,48,40,208,42,22,36,118,38,12,36,310,43,17,35,062,39*77
$GPGSV,3,3,11,14,18,125,37,03,11,042,40,20,09,170,22*4B
$GLGSV,2,1,07,73,78,316,43,80,41,145,47,74,28,326,39,82,28,034,37*60
$GLGSV,2,2,07,81,,,,83,,,43,84,,,40*6F
$GNRMC,233302.000,A,3934.6720,N,10605.4055,W,0.02,76.55,070126,,,D*5D
$GNGGA,233303.000,3934.6720,N,10605.4055,W,2,14,0.72,2765.2,M,-19.4,M,,*7C
$GPGSV,3,1,11,06,77,107,43,19,57,045,42,11,45,200,40,24,40,258,42*7D
$GPGSV,3,2,11,48,40,208,42,22,36,118,38,12,36,310,43,17,35,062,39*77
$GPGSV,3,3,11,14,18,125,37,03,11,042,40,20,09,170,22*4B
$GLGSV,2,1,07,73,78,316,42,80,41,145,47,74,28,326,38,82,28,034,37*60
$GLGSV,2,2,07,81,,,,83,,,43,84,,,40*6F
$GNRMC,233303.000,A,3934.6720,N,10605.4055,W,0.01,76.55,070126,,,D*5F
$GNGGA,233304.000,3934.6720,N,10605.4055,W,2,14,0.72,2765.2,M,-19.4,M,,*7B
$GPGSV,3,1,11,06,77,107,43,19,57,045,42,11,45,200,40,24,40,258,42*7D
$GPGSV,3,2,11,48,40,208,42,22,36,118,38,12,36,310,43,17,35,062,39*77
$GPGSV,3,3,11,14,18,125,37,03,11,042,40,20,09,170,23*4A
$GLGSV,2,1,07,73,78,316,42,80,41,145,47,74,28,326,38,82,28,034,37*60
$GLGSV,2,2,07,81,,,,83,,,42,84,,,40*6E
$GNRMC,233304.000,A,3934.6720,N,10605.4055,W,0.01,76.55,070126,,,D*58
$GNGGA,233305.000,3934.6720,N,10605.4055,W,2,14,0.72,2765.2,M,-19.4,M,,*7A
$GPGSV,3,1,11,06,77,107,43,19,57,045,42,11,45,200,40,24,40,258,42*7D
$GPGSV,3,2,11,48,40,208,42,22,36,118,38,12,36,310,43,17,35,062,39*77
$GPGSV,3,3,11,14,18,125,37,03,11,042,40,20,09,170,23*4A
$GLGSV,2,1,07,73,78,316,42,80,41,145,47,74,28,326,38,82,28,034,37*60
$GLGSV,2,2,07,81,,,,83,,,42,84,,,40*6E
$GNRMC,233305.000,A,3934.6720,N,10605.4055,W,0.01,76.55,070126,,,D*59
$GNGGA,233306.000,3934.6720,N,10605.4055,W,2,14,0.72,2765.3,M,-19.4,M,,*78
$GPGSV,3,1,11,06,77,107,43,19,57,045,42,11,45,200,40,24,40,258,42*7D
$GPGSV,3,2,11,48,40,208,42,22,36,118,38,12,36,310,43,17,35,062,39*77
$GPGSV,3,3,11,14,18,125,37,03,11,042,40,20,09,170,24*4D
$GLGSV,2,1,07,73,78,316,42,80,41,145,47,74,28,326,38,82,28,034,37*60
$GLGSV,2,2,07,81,,,,83,,,42,84,,,40*6E
$GNRMC,233306.000,A,3934.6720,N,10605.4055,W,0.01,76.55,070126,,,D*5A
$GNGGA,233307.000,3934.6720,N,10605.4055,W,2,14,0.72,2765.3,M,-19.4,M,,*79
$GPGSV,3,1,11,06,77,107,43,19,57,045,43,11,45,200,40,24,40,258,42*7C
$GPGSV,3,2,11,48,40,208,42,22,36,118,38,12,36,310,43,17,35,062,40*79
$GPGSV,3,3,11,14,18,125,37,03,11,042,40,20,09,170,24*4D
$GLGSV,2,1,07,73,78,316,42,80,41,145,47,74,28,326,38,82,28,034,37*60
$GLGSV,2,2,07,81,,,,83,,,43,84,,,40*6F
$GNRMC,233307.000,A,3934.6720,N,10605.4055,W,0.01,76.55,070126,,,D*5B
$GNGGA,233308.000,3934.6720,N,10605.4055,W,2,14,0.72,2765.3,M,-19.4,M,,*76
$GPGSV,3,1,11,06,77,107,42,19,57,045,43,11,45,200,40,24,40,258,42*7D
$GPGSV,3,2,11,48,40,208,42,22,36,118,38,12,36,310,43,17,35,062,40*79
$GPGSV,3,3,11,14,18,125,37,03,11,042,40,20,09,170,24*4D
